name,lat,lon,alt,city,icao,iata
Total Rf Heliport,40.07080078,-74.93360138,11,Bensalem,00A,
Lowell Field,59.94919968,-151.6959991,450,Anchor Point,00AK,
Epps Airpark,34.8647995,-86.77030182,820,Harvest,00AL,
Newport Hospital & Clinic Heliport,35.6086998,-91.25489807,237,Newport,00AR,
Cordes Airport,34.30559921,-112.1650009,3810,Cordes,00AZ,
Goldstone /Gts/ Airport,35.3504982,-116.8880005,3038,Barstow,00CA,
Cass Field,40.62220001,-104.3440018,4830,Briggsdale,00CO,
Grass Patch Airport,28.64550018,-82.21900177,53,Bushnell,00FA,
Ringhaver Heliport,28.84659958,-82.34539795,25,Riverview,00FD,
River Oak Airport,27.23089981,-80.96920013,35,Okeechobee,00FL,
Lt World Airport,33.76750183,-84.06829834,700,Lithonia,00GA,
Caffrey Heliport,33.88420105,-84.73390198,957,Hiram,00GE,
Kaupulehu Heliport,19.83250046,-155.9819946,43,Kailua/Kona,00HI,
Delta Shores Airport,48.14530182,-116.2139969,2064,Clark Fork,00ID,
Bailey Generation Station Heliport,41.64450073,-87.12280273,600,Chesterton,00II,
Hammer Airport,41.97840118,-89.56040192,840,Polo,00IL,
St Mary Medical Center Heliport,41.51139832,-87.26059723,634,Hobart,00IN,
Hayenga's Cant Find Farms Airport,40.02560043,-89.12290192,820,Kings,00IS,
Hayden Farm Airport,38.72779846,-94.93049622,1100,Gardner,00KS,
Robbins Roost Airport,37.40940094,-84.61969757,1265,Stanford,00KY,
Shell Chemical East Site Heliport,30.191944,-90.980833,15,Gonzales,00LA,
Ac & R Components Heliport,39.66529846,-89.70559692,600,Chatham,00LL,
Lejeune Airport,30.13629913,-92.42939758,12,Esterwood,00LS,
Slater Field,38.75709915,-75.75379944,45,Federalsburg,00MD,
Dow Chemical Heliport,43.94940186,-86.41670227,588,Ludington,00MI,
Battle Lake Municipal Airport,46.29999924,-95.70030212,1365,Battle Lake,00MN,
Cooper Flying Service Airport,37.20280075,-94.41239929,970,Alba,00MO,
Sands Ranch Airport,48.53749847,-109.7050018,2600,Havre,00MT,
Bucks Airport,39.47320175,-75.18520355,105,Bridgeton,00N,
North Raleigh Airport,36.08520126,-78.37139893,348,Louisburg,00NC,
Colgate-Piscataway Heliport,40.52090073,-74.47460175,78,New Brunswick,00NJ,
Weiss Airfield,42.90010071,-77.49970245,1000,West Bloomfield,00NY,
Exit 3 Airport,41.59090042,-84.14219666,785,Wauseon,00OH,
Miami Valley Hospital Heliport,39.74530029,-84.18740082,905,Dayton,00OI,
Steel Systems Heliport,44.93289948,-123.1299973,195,Salem,00OR,
R J D Heliport,39.94889832,-75.74690247,402,Coatesville,00PA,
Ferrell Field,41.2995,-80.211111,1301,Mercer,00PN,
Thomas Field,40.37779999,-77.36530304,815,Loysville,00PS,
Mc Kenzie Bridge State Airport,44.18320084,-122.0889969,1620,Mc Kenzie Bridge,00S,
Flying O Airport,34.00939941,-80.26719666,150,Sumter,00SC,
Sw Region Faa Heliport,32.82690048,-97.30580139,598,Fort Worth,00TA,
Tcjc-Northeast Campus Heliport,32.84759903,-97.1894989,600,Fort Worth,00TE,
Ragsdale Road Airport,35.51589966,-85.95359802,1100,Manchester,00TN,
Alpine Range Airport,32.60760117,-97.24199677,670,Everman,00TS,
San Jacinto Methodist Hospital Heliport,29.73769951,-94.98020172,19,Baytown,00TX,
Clear Creek Ranch Airport,37.24779892,-112.8219986,6138,Kanab,00UT,
Vaughan Airport,36.57600021,-78.9991684,551,Alton,00VA,
Groundhog Mountain Airport,36.66329956,-80.49949646,2680,Hillsville,00VI,
Lower Granite State Airport,46.67350006,-117.4430008,719,Colfax,00W,
Howell Airport,47.17839813,-122.7720032,150,Longbranch,00WA,
Northern Lite Airport,44.3042984,-89.05010223,860,Waupaca,00WI,
Hawks Run Airport,46.25,-117.2490005,2900,Asotin,00WN,
Lazy J. Aerodrome,38.82889938,-79.8660965,2060,Beverly,00WV,
L P Askew Farms Airport,33.03340149,-101.9339981,3110,O'Donnell,00XS,
Purkeypile Airport,62.9435997,-152.2700043,1950,Purkeypile,01A,
Providence Seward Medical Center Heliport,60.10587398,-149.446249,120,Seward,01AK,
Ware Island Airport,32.94599915,-86.51390076,344,Clanton,01AL,
Community Hospital of De Queen Heliport,34.04729843,-94.35489655,400,De Queen,01AR,
Yat Heliport,34.60810089,-111.8649979,3300,Camp Verde,01AZ,
Grant Airport,43.34170151,-85.77500153,815,Grant,01C,
Lugo Substation Heliport,34.36824059,-117.3700587,3733,Hesperia,01CA,
Swansboro Country Airport,38.79990005,-120.7340012,2594,Placerville,01CL,
Los Angeles County Sheriff's Department Heliport,34.03779984,-118.1539993,300,Los Angeles,01CN,
St Vincent General Hospital Heliport,39.24530029,-106.2460022,10175,Leadville,01CO,
Berlin Fairgrounds Heliport,41.62730026,-72.72750092,60,Berlin,01CT,
Rybolt Ranch Airport,28.58939934,-81.14420319,55,Orlando,01FA,
Florida Hospital-Altamonte Heliport,28.66640091,-81.37059784,86,Altamonte Springs,01FD,
Cedar Knoll Flying Ranch Airport,28.78190041,-81.15920258,19,Geneva,01FL,
Medical Center Heliport,32.47930145,-84.97910309,319,Columbus,01GA,
The Farm Airport,32.67440033,-82.77110291,375,Wrightsville,01GE,
Stender Airport,41.66109848,-90.74130249,725,Maysville,01IA,
Lava Hot Springs Airport,42.60820007,-112.0319977,5268,Lava Hot Springs,01ID,
Myers Field,39.88499832,-86.50669861,950,Lizton,01II,
Hoopeston Community Memorial Hospital Heliport,40.45859909,-87.65950012,583,Hoopeston,01IL,
Community Hospital Heliport,40.13090134,-85.69580078,890,Anderson,01IN,
William E. Koenig Airport,39.01620102,-90.31819916,670,Dow,01IS,
Hilliard Airpark,30.68630028,-81.90570068,59,Hilliard,01J,
Caldwell Municipal Airport,37.03609848,-97.58640289,1157,Caldwell,01K,
Flying N Ranch Airport,38.54059982,-97.00330353,1485,Lost Springs,01KS,
Lourdes Hospital Heliport,37.05170059,-88.64689636,419,Paducah,01KY,
Barham Airport,32.63899994,-91.7736969,90,Oak Ridge,01LA,
Schumaier Restricted Landing Area,38.12580109,-89.46389771,555,Pinckneyville,01LL,
Country Breeze Airport,30.70599937,-91.07740021,125,Slaughter,01LS,
Compaq Andover Heliport,42.62509918,-71.18009949,140,Andover,01MA,
Annapolis Seaplane Base,38.99919891,-76.45600128,,Annapolis,01MD,
Saint Peter's Seaplane Base,46.77890015,-68.50029755,608,Portage Lake,01ME,
Flow Through Terminal Heliport,43.04949951,-83.67970276,736,Flint,01MI,
Barnes Seaplane Base,47.89960098,-92.55740356,1358,Cook,01MN,
Highway Patrol Troop C Headquarters Heliport,38.64170074,-90.48429871,615,Town and Country,01MO,
Crystal Lakes Resort Airport,48.78910065,-114.8799973,3141,Fortine,01MT,
Topsail Airpark,34.47529984,-77.58139801,65,Holly Ridge,01NC,
Detour Airport,40.84360123,-100.6529999,3000,Wellfleet,01NE,
Moore Airfield,43.64450073,-72.08699799,835,Enfield,01NH,
Albert Guido Memorial Heliport,40.7417984,-74.13710022,10,Newark,01NJ,
Champion Ranch Airport,33.008611,-104.540278,3630,Artesia,01NM,
Lantana Ranch Airport,38.76390076,-119.0270004,4600,Yerington,01NV,
Vassar Hospital Heliport,41.70009995,-73.94960022,100,Poughkeepsie,01NY,
Galion Community Hospital Heliport,40.73059845,-82.8015976,1140,Galion,01OI,
Lawrence Airport,35.29449844,-98.6364975,1525,Eakly,01OK,
Red & White Flying Service Airport,43.11930084,-121.0449982,4346,Silver Lake,01OR,
Pine Heliport,40.6556015,-80.05090332,1215,Mars,01PA,
Bierly(Personal Use) Airport,40.93059921,-77.73889923,960,Bellefonte,01PN,
Nort's Resort Airport,41.59590149,-76.02960205,1040,Meshoppen,01PS,
York Airport,35.03210068,-81.25279999,779,York,01SC,
Thirty Thirty Matlock Office Center Heliport,32.69419861,-97.11579895,630,Arlington,01TA,
Smith Field,32.73759842,-96.4280014,505,Forney,01TE,
Colonial Air Park,34.9958992,-89.73059845,370,Collierville,01TN,
St Joseph Hospital Heliport,32.72850037,-97.32450104,675,Fort Worth,01TS,
Mims Farm Ultralightport,32.38759995,-96.87750244,610,Waxahachie,01TX,
Duckwater Airport,38.85160065,-115.6340027,5124,Duckwater,01U,
La Sal Junction Airport,38.30830002,-109.3960037,6000,La Sal,01UT,
Pickles Airport,39.125,-77.92500305,500,Berryville,01VA,
Willapa Harbor Heliport,46.66320038,-123.8119965,154,South Bend,01WA,
Prehn Cranberry Company Airport,44.00999832,-90.3891983,930,Tomah,01WI,
Whidbey General Hospital Heliport,48.21340179,-122.6849976,103,Coupeville,01WN,
Odyssey Heliport,47.518178,-122.210908,20,Renton,01WT,
Keyhole Airport,44.34719849,-104.810997,4250,Moorcroft,01WY,
Seton Medical Center Hays Heliport,30.007222,-97.853333,715,Kyle,01XA,
Meadowood Ranch Heliport,32.02019882,-95.74549866,500,Athens,01XS,
Rustic Wilderness Airport,61.87689972,-150.0980072,190,Willow,02AK,
Bass Field,30.37150002,-87.76439667,61,Foley,02AL,
Three Rivers Airport,34.82244492,-92.44441986,264,Little Rock,02AR,
Winchester Farm Airstrip,32.37639999,-109.9369965,4200,Willcox,02AZ,
Swepi Beta Platform Ellen Heliport,33.58250046,-118.1289978,122,Huntington Beach,02CA,
Shannon Field,34.12960052,-90.52400208,165,Clarksdale,02CD,
Conover Air Lodge Airport,34.76110077,-119.0589981,5160,Frazier Park,02CL,
Mc Cullough Airport,37.6432991,-106.0469971,7615,Monte Vista,02CO,
Strangers Point Heliport,41.91960144,-72.44450378,540,Ellington,02CT,
Osborn Airfield,28.52669907,-81.87480164,121,Groveland,02FA,
Cuchens Airport,30.642778,-86.123889,215,Defuniak Springs,02FL,
Doug Bolton Field,34.20259857,-83.42900085,884,Commerce,02GA,
Etowah Fields Airport,34.1753006,-84.92440033,710,Euharlee,02GE,
K3 Helipad Heliport,21.36199951,-157.951004,9,Pearl Harbor,02HI,
Boone County Hospital Heliport,42.05609894,-93.87799835,1160,Boone,02IA,
Morgan Ranch Airport,44.55550003,-115.3050003,5634,Cascade,02ID,
King Ultralightport,40.06230164,-86.21050262,925,Westfield,02II,
Diamond P. Field,40.20890045,-85.540802,904,Muncie,02IN,
Condell Medical Center Heliport,42.27460098,-87.95729828,762,Libertyville,02IS,
Jmj Landing Airport,39.22219849,-96.05529785,1170,St Marys,02KS,
Boone National Guard Heliport,38.1833992,-84.89990234,760,Frankfort,02KY,
La State Police Troop G Heliport,32.53129959,-93.66020203,168,Bossier City,02LA,
Windy Hill Heliport,30.14830017,-91.91899872,25,Broussard,02LS,
Cuttyhunk Heliport,41.41960144,-70.92700195,9,Gosnold,02MA,
Old Acton Airfield,43.53730011,-70.92939758,700,Acton,02ME,
Fairplains Airpark,43.15710068,-85.14849854,850,Greenville,02MI,
Greenbush Municipal Airport,48.68330002,-96.19200134,1070,Greenbush,02MN,
Troy Airpark,39.04999924,-91.03350067,650,Troy,02MO,
Watts Field,34.10010147,-90.84680176,153,Rochdale,02MS,
Barrett Field,47.23740005,-111.7419968,3350,Cascade,02MT,
Timber Line Airpark,36.65420151,-93.79740143,1550,Cassville,02MU,
Race City Heliport,35.541111,-80.597778,809,Landis,02NC,
Benes Service Airport,41.07450104,-96.90450287,1550,Valparaiso,02NE,
Iroquois Landing Seaplane Base,44.65710068,-71.21910095,1180,Dummer,02NH,
Penske Heliport,40.55730057,-74.46710205,78,Piscataway,02NJ,
Paiute Meadows Airport,41.30329895,-118.5979996,4443,Winnemucca,02NV,
Hansen Heliport,43.13259888,-75.65550232,435,Durhamville,02NY,
Zimmerman Airport,41.37639999,-83.08329773,614,Fremont,02OH,
Murtha Airport,41.80199814,-80.56539917,950,Conneaut,02OI,
Canon Heliport,35.45840073,-97.52529907,1191,Oklahoma City,02OK,
Rowena Dell Airport,45.68149948,-121.3160019,705,The Dalles,02OR,
Stottle Memorial Heliport,40.40359879,-77.55660248,591,Honey Grove,02P,
Lag Iii Heliport,40.43830109,-79.76999664,1070,Monroeville,02PA,
Peco Berwyn Heliport,40.06959915,-75.4552002,390,Berwyn,02PN,
Cuylers Airport,18.45330048,-66.36689758,15,Vega Baja,02PR,
Hughes Ultralightport,41.90060043,-77.2303009,1700,Tioga,02PS,
Harpers Airport,32.75849915,-81.22480011,111,Estill,02SC,
Wise River Airport,45.76910019,-112.9820023,5830,Wise River,02T,
Matagorda Shore Facility Heliport,28.72139931,-95.87380219,5,Matagorda,02TA,
Baylor Medical Center Heliport,32.395401,-96.86419678,560,Waxahachie,02TE,
Ellis Field,35.7806015,-86.584198,840,Murfreesboro,02TN,
Fwomc Heliport,32.74760056,-97.37000275,684,Fort Worth,02TS,
The Palms At Kitty Hawk Airport,33.37040329,-101.9228821,3235,New Home,02TX,
Lucin Airport,41.36629868,-113.8430023,4412,Lucin,02UT,
The Greenhouse Airport,38.43569946,-77.85720062,320,Culpeper,02VA,
Northstar Aviation Heliport,36.63880157,-82.11669922,1850,Bristol,02VG,
Cawleys South Prairie Airport,47.15230179,-122.0940018,690,South Prairie,02WA,
Beer Airport,45.0318985,-92.65579987,920,Hudson,02WI,
Fowler Field,48.74580002,-119.3190002,2150,Tonasket,02WN,
Seidel Ranch Airport,30.14769936,-97.66280365,510,Elroy,02XS,
Joe Clouds Seaplane Base,60.72722244,-151.132782,150,Kenai,03AK,
Jackson County Hospital Heliport,34.66249847,-86.04720306,628,Scottsboro,03AL,
Hscmh Heliport,34.35760117,-92.78849792,350,Malvern,03AR,
Thompson International Aviation Airport,31.4333992,-110.0839996,4275,Hereford,03AZ,
Grossmont Hospital Heliport,32.77980042,-117.0059967,634,La Mesa,03CA,
Kugel-Strong Airport,40.21250153,-104.7440033,4950,Platteville,03CO,
Lake Persimmon Airstrip,27.35309982,-81.40809631,70,Lake Placid,03FA,
Tharpe Airport,30.8288002,-85.73100281,115,Bonifay,03FD,
Ranger Heliport,26.68370056,-80.18730164,20,West Palm Beach,03FL,
Clarks Dream Strip,39.64419937,-83.01820374,680,Circleville,03I,
East Field,41.58190155,-92.46130371,954,Montezuma,03IA,
Flying Y Ranch Airport,44.79430008,-116.5329971,3180,Council,03ID,
Davis Field Ultralightport,37.9620018,-87.77890015,465,Mount Vernon,03II,
Wix Airport,41.40230179,-87.8167038,750,Monee,03IL,
Heinzman Airport,40.18000031,-86.01249695,850,Arcadia,03IN,
St Anthony's Hospital Heliport,38.90499878,-90.17340088,580,Alton,03IS,
Valley Grain Heliport,39.86470032,-95.26409912,1160,Highland,03KS,
Flying H Farms Airport,37.79169846,-87.54139709,385,Henderson,03KY,
Damien Heliport,30.19960022,-91.12789917,25,Carville,03LA,
Fmc Nr 1 Heliport,32.1590004,-91.70800018,79,Winnsboro,03LS,
Lakeside Marina Seaplane Base,44.32089996,-69.88950348,165,East Winthrop,03M,
Hadley Airport,42.39310074,-72.55200195,150,Hadley,03MA,
Upper Chesapeake Medical Center Heliport,39.52249908,-76.3266983,302,Bel Air,03MD,
Maple Ridge Airport,44.08420181,-70.62729645,556,Harrison,03ME,
Harold Miller Heliport,43.55089951,-83.86219788,585,Bay City,03MI,
Nauerth Land Ranch Airport,43.62519836,-95.22470093,1435,Lakefield,03MN,
Cahoochie Airport,37.8844986,-93.13159943,1010,Urbana,03MO,
Vicksburg Medical Center Heliport,32.31880188,-90.8832016,110,Vicksburg,03MS,
Cascade Airport,47.27080154,-111.7220001,3580,Cascade,03MT,
Mc Donnell Airport,38.49250031,-94.41249847,874,Archie,03MU,
Utirik Airport,11.22200012,169.852005,4,Utirik Island,03N,UTK
Pilots Ridge Airport,34.10430145,-77.90419769,35,Carolina Beach,03NC,
Olafson Brothers Airport,48.62639999,-97.82900238,1045,Edinburg,03ND,
Hyde Ranch Airport,41.54639816,-99.33119965,2430,Comstock,03NE,
Lorden Heliport,42.81539917,-71.12439728,400,Milford,03NH,
At&T Heliport,40.66870117,-74.41069794,360,Berkely Heights,03NJ,
Llama Ranch Airport,40.58440018,-115.2979965,6120,Ruby Valley,03NV,
Talmage Field,40.95840073,-72.71679688,95,Riverhead,03NY,
Gibbs Field,41.41839981,-83.01740265,580,Fremont,03OH,
Marymount Hospital Heliport,41.42089844,-81.59980011,890,Garfield Heights,03OI,
Sahoma Lake Airport,36.04119873,-96.16139984,890,Sapulpa,03OK,
Powwatka Ridge Airport,45.85540009,-117.4840012,3340,Troy,03OR,
Collegeville Heliport,40.16289902,-75.46569824,197,Collegeville,03PA,
M.P. Metals Heliport,41.066861,-76.180806,479,Berwick,03PN,
Ziggy's Field,40.84999847,-77.9056015,1050,Bellefonte,03PS,
Sandy River Airport,45.40179825,-122.2289963,704,Sandy,03S,
Seacoast Medical Center Heliport,33.86500168,-78.66190338,73,Little River,03SC,
Gay Hill Farm Airport,30.26269913,-96.50019836,505,Gay Hill,03TA,
Barronena Ranch Airport,27.49110031,-98.66950226,600,Hebbronville,03TE,
Eagles Landing Heliport,35.92250061,-83.57939911,1000,Sevierville,03TN,
Shannon Medical Center Heliport,31.4598999,-100.4380035,1825,San Angelo,03TS,
M D K Field,29.58160019,-95.30719757,50,Pearland,03TX,
A Z Minerals Corporation Airport,37.12080002,-109.9860001,5315,Mexican Hat,03UT,
Whipoorwill Springs Airport,38.66460037,-77.57969666,250,Nokesville,03VA,
Spangle Field,47.40819931,-117.3720016,2440,Spangle,03WA,
Zink Airport,44.02750015,-88.88089752,880,Berlin,03WI,
Aerostone Ranch Airport,45.875,-120.6699982,2320,Goldendale,03WN,
Creekside Airport,31.31809998,-100.7539978,2100,Mertzon,03XS,
Anniston AHP (Anniston Army Depot),33.62639999,-85.96720123,686,Anniston,04AL,
Saline Memorial Hospital Heliport,34.57400131,-92.582901,430,Benton,04AR,
Chinle Airport,36.15420151,-109.5510025,5515,Chinle,04AZ,
Gray Butte Field,34.56389999,-117.6750031,3020,Palmdale,04CA,
Hunt's Sky Ranch Airport,33.08169937,-116.4410019,2310,Julian,04CL,
Shingle Mill Heliport,41.75510025,-73.05239868,880,Harwinton,04CT,
De Leon Municipal Airport,32.09880066,-98.52529907,1293,De Leon,04F,
Richards Field,25.55870056,-80.51509857,9,Homestead,04FA,
Cross Creek Farms Airport,29.23940086,-81.22200012,30,Ormond,04FL,
Columbus Southwest Airport,39.91120148,-83.188797,920,Columbus,04I,
Middlekoop Airport,41.0882988,-92.05460358,801,Packwood,04IA,
Lanham Field,43.87770081,-116.5370026,2343,Emmett,04ID,
Turkey Run Airport,41.13059998,-84.99410248,765,New Haven,04II,
Schertz Aerial Service - Hudson Airport,40.63750076,-89.00700378,755,Hudson,04IL,
Lake Gage Seaplane Base,41.701389,-85.113056,954,Angola,04IN,
Van Gorder Airport,40.17860031,-88.56900024,728,Mansfield,04IS,
Robinson Industries Heliport,38.97890091,-95.21970367,835,Lawrence,04KS,
Natchez Trace Farm Airport,37.13510132,-85.78939819,710,Hiseville,04KY,
St James Heliport,30.051111,-90.702222,10,Lutcher,04LA,
Brunner Airport,42.13610077,-88.28759766,750,West Dundee,04LL,
La National Guard Heliport,30.44610023,-91.1053009,52,Baton Rouge,04LS,
Goddard Field (Airport),42.80979919,-71.1391983,200,Haverhill,04MA,
Chesapeake City Heliport,39.51810074,-75.8214035,40,Chesapeake City,04MD,
Beech Hill Airport,44.66669846,-69.89389801,625,Mercer,04ME,
Rapids Airway Airport,42.53450012,-84.62830353,880,Eaton Rapids,04MI,
Helblad Airport,47.9858017,-94.68689728,1195,Kelliher,04MN,
Airpark Private Airport,39.30120087,-91.45149994,767,Vandalia,04MO,
Nick's Flying Service Inc Airport,32.9396019,-90.83730316,100,Rolling Fork,04MS,
Pluhar Airport,47.13749778,-106.488095,2715,Cohagen,04MT,
Western Wake Medical Center Heliport,35.73920059,-78.78220367,445,Cary,04NC,
Mc Connell Field Airport,41.15999985,-101.2990036,3035,Sarben,04NE,
Emmanuel Airport,39.59680176,-75.23349762,155,Elmer,04NJ,
Kingston Ranch Airport,35.75550079,-115.6650009,2620,Sandy Valley,04NV,
Klaverack Airport,42.26229858,-73.69619751,250,Hudson,04NY,
Teufel Heliport,45.530833,-123.085556,185,Forest Grove,04OG,
Bossow Airport,41.24769974,-81.10070038,1080,Garrettsville,04OH,
Stillwater Medical Center Heliport,36.11529922,-97.07949829,984,Stillwater,04OK,
Collins Landing Strip,44.74990082,-120.2009964,1500,Mitchell,04OR,
S & C Distribution Center Heliport,39.87929916,-75.22879791,50,Philadelphia,04PA,
Strawbridge & Clothier Exton Heliport,40.0306619,-75.63021,320,Exton,04PN,
Emergency Helipad,34.84059906,-82.60690308,994,Easley,04SC,
Capitol National Bank Building Heliport,30.27104167,-97.74469757,540,Austin,04TA,
Veterans Affairs Medical Center Heliport,29.70019913,-95.38739777,49,Houston,04TE,
Hensley Airpark,36.18330002,-82.67890167,1430,Chuckey,04TN,
Hummingbird Heliport,30.55349922,-97.60610199,690,Hutto,04TS,
Pocock Airport,31.73220062,-97.36889648,565,China Spring,04TX,
Navajo Mountain Airport,37.00830078,-110.7949982,6160,Navajo Mountain Trdng Post,04UT,
Saguache Municipal Airport,38.0990833,-106.1743889,7826,Saguache,04V,
Russell County Medical Center Heliport,36.898,-82.078,2004,Lebanon,04VA,
Manquin Flight Park Ultralightport,37.71440125,-77.21179962,50,Manquin,04VG,
Lightning Bolt Field Airport,44.40110016,-72.26360321,2156,Cabot,04VT,
Field of Dreams Airport,46.02280045,-92.895401,1021,Hinckley,04W,
Ox Meadows Airport,47.58179855,-117.4369965,2345,Spokane,04WA,
Dutch Gap Airstrip,42.52339935,-88.01670074,760,Bristol,04WI,
Stillwater Creek Airport,46.963889,-119.641667,1510,Royal City,04WN,
West Virginia Univ. Hosp. Inc. Gnd. Pad #2 Heliport,39.65361111,-79.95611111,1137,Morgantown,04WV,
Napiers Heliport,32.58209991,-97.14250183,625,Mansfield,04XS,
Wasilla Creek Airpark,61.66830063,-149.1880035,620,Palmer,05AK,
Allen Stagefield Army Heliport,31.23119926,-85.64969635,365,Fort Rucker/Wicksburg,05AL,
Ozark Skies Airpark,36.000633,-93.57025,1900,Kingston,05AR,
Yuma Regional Medical Center Heliport,32.68280029,-114.6340027,200,Yuma,05AZ,
Van Buren Seaplane Base,47.15890121,-67.93199921,440,Van Buren,05B,
Lost Hills Sheriff's Station Heliport,34.13779831,-118.7139969,888,Calabasas,05CA,
Pope Valley Airport,38.6106987,-122.3909988,618,Pope Valley,05CL,
Rancho De Aereo Airport,40.2149839,-104.9844228,4978,Mead,05CO,
O And G Heliport,41.77370071,-73.11620331,600,Torrington,05CT,
Melanie's Airport,30.91889954,-86.21829987,295,Florala,05FA,
Aventura Heliport,25.96089935,-80.1391983,6,North Miami Beach,05FD,
Charlton Strip,26.5230999,-81.40830231,36,La Belle,05FL,
Raju Airport,32.07139969,-84.71440125,625,Richland,05GA,
Spotts Field,43.13750076,-93.06829834,1155,Nora Springs,05IA,
Running Creek Ranch Airport,45.91410065,-114.8359985,2969,Grangeville,05ID,
Reichhart Airport,41.02870178,-84.99720001,795,New Haven,05II,
Classic Landings Airport,41.15670013,-88.01670074,635,Bonfield,05IL,
Cooper Airport,39.64199829,-86.5042038,860,Belleville,05IN,
Hardy Airport,39.72589874,-89.26399994,605,Mount Auburn,05IS,
Darbro Field,37.26620102,-95.959198,945,Elk City,05KS,
Cartersville Airport,37.53689957,-84.40720367,1070,Berea,05KY,
Greg's Flying Service Airport,32.26530075,-91.69779968,76,Baskin,05LA,
Midwest Heliport,41.74890137,-87.93509674,710,Willowbrook,05LL,
Grass Roots Airport,31.25219917,-92.47579956,83,Alexandria,05LS,
Pauls Valley General Hospital Heliport,34.71969986,-97.21399689,911,Pauls Valley,05M,
Bentley Heliport,42.69120026,-70.91230011,80,Ipswich,05MA,
Breezecroft Airport,39.25009918,-76.2052002,20,Chestertown,05MD,
Drisko Airport,44.6570015,-67.55919647,70,Jonesboro,05ME,
Portageville Community Heliport,36.42979813,-89.68009949,272,Portageville,05MO,
Va Medical Center Jackson Heliport,32.31890106,-90.16809845,359,Jackson,05MS,
Brunswick Community Hospital Heliport,34.0080986,-78.29109955,63,Supply,05NC,
Mc Kay Airport,41.72219849,-98.30899811,2010,Spalding,05NE,
Stumpfield Heliport,42.9239006,-70.95140076,200,Kensington,05NH,
Paulus Hook Pier Heliport,40.7140007,-74.03150177,7,Jersey City,05NJ,
Oswego County At Pulaski Heliport,43.55199814,-76.09020233,445,Pulaski,05NY,
Dorlon Airpark,41.28839874,-81.96260071,830,Columbia Station,05OI,
Hawk Haven Airport,35.85340118,-97.56749725,1075,Crescent,05OK,
Peacock Ranch Airport,45.44150162,-117.3509979,3500,Enterprise,05OR,
Philadelphia Market Street Heliport,39.95479965,-75.17819977,110,Philadelphia,05PA,
State Police Area Iii Heliport,40.30009842,-76.85800171,485,Harrisburg,05PN,
Mills Brothers Airport,40.14279938,-77.86190033,1210,Burnt Cabins,05PS,
Vernonia Airfield,45.85150146,-123.2419968,647,Vernonia,05S,
Brandes Air Field,29.8090992,-96.26509857,276,Sealy,05TA,
Hilde-Griff Field,30.7220993,-97.79139709,950,Georgetown,05TE,
Thurmond Glenn Field,35.55699921,-89.55290222,285,Covington,05TN,
Dew Drop Airport,33.12929916,-97.3585968,750,Justin,05TS,
Circle 'A' Ranch Airport,32.12919998,-97.40419769,608,Blum,05TX,
Oljato Airport,37.03329849,-110.3170013,4838,Oljato,05UT,
Blanca Airport,37.41109848,-105.552002,7720,Blanca,05V,
Providence Airport,37.2242012,-78.41860199,445,Farmville,05VA,
Port of Highgate Springs Heliport,45.01330185,-73.08670044,68,Highgate Springs,05VT,
Sacred Heart Medical Center Helistop,47.64820099,-117.4140015,2220,Spokane,05WA,
Ames Private Airport,42.65110016,-88.74590302,958,Darien,05WI,
Flat Creek Field,48.702222,-118.0475,1570,Kettle Falls,05WN,
Johnson Memorial Airport,33.07929993,-91.54319763,105,Wilmot,05XS,
Henning Municipal Airport,46.30379868,-95.4394989,1455,Henning,05Y,
June Lake Airpark,61.627619,-149.575331,425,Wasilla,06AK,
Brown Stagefield Army Heliport,31.38839912,-85.97239685,415,Fort Rucker/New Brockton,06AL,
Bondair Airport,35.54449844,-92.18489838,499,Higden,06AR,
Mercy Gilbert Medical Center Heliport,33.28580093,-111.7529984,1280,Gilbert,06AZ,
Lucky Landing Marina and Seaplane Base,44.9070015,-68.80500031,115,Bangor,06B,
Sce Solar I Heliport,34.87080002,-116.8339996,1942,Yermo,06CA,
Abc7-Tv Heliport,35.15719986,-118.2890015,520,Glendale,06CL,
Jecan Airport,37.38750076,-103.6910019,5100,Branson,06CO,
William P Gwinn Airport,26.90839958,-80.3289032,28,Jupiter,06FA,
Grass Roots Airpark,28.64170074,-81.88500214,105,Mascotte,06FD,
Morton Plant Hospital Heliport,27.95339966,-82.8042984,3,Clearwater,06FL,
Smith Heliport,33.7533989,-84.16210175,1065,Redan,06GA,
Patoka Reservoir Landing Area Seaplane Base,38.4333992,-86.69110107,536,French Lick,06I,
Rich Field,41.84140015,-91.83429718,880,Walford,06IA,
Larkin Airport,43.46269989,-116.3590012,2750,Kuna,06ID,
Humm Airport,41.59949875,-88.86990356,708,Earlville,06IL,
Ellis Fly-In Airport,39.28279877,-87.3035965,575,Blackhawk,06IN,
Sinele Strip,40.54639816,-91.27429962,695,Nauvoo,06IS,
Riverside Hospital Airlift Heliport,37.69580078,-97.37249756,1332,Wichita,06KS,
Falcon Heliport,37.52590179,-83.34519958,751,Jackson,06KY,
Panther Helicopters Inc Heliport,29.84600067,-90.02780151,,Belle Chasse,06LA,
Hammersmith Heliport,41.87360001,-88.49690247,812,Elburn,06LL,
Tembec Heliport,30.70789909,-91.32019806,85,St Francisville,06LS,
The Barn Heliport,42.69060135,-71.60900116,210,Pepperell,06MA,
Bayview Heliport,39.29140091,-76.5463028,132,Baltimore,06MD,
W A Foote Memorial Hospital Heliport,42.25109863,-84.3914032,978,Jackson,06MI,
Pike Field Airport,47.65190125,-92.41670227,1463,Virginia,06MN,
Noahs Ark Airport,39.23059845,-94.80439758,755,Waldron,06MO,
Torgerson Airport,48.55830002,-112.1090012,3541,Ethridge,06MT,
Randall Airport,41.43199921,-74.39160156,523,Middletown,06N,
Tailwinds Airport,34.82749939,-78.93029785,163,St. Pauls,06NC,
Fitterer's Strip,46.74890137,-101.6689987,2180,Glen Ullin,06ND,
St Marys Hospital Heliport,40.68000031,-95.86170197,1015,Nebraska City,06NE,
Cole Farm Airport,42.92839813,-70.97309875,160,Kensington,06NH,
Chemical Bank - New Jersey Na Heliport,39.95009995,-74.99960327,25,Moorestown,06NJ,
Murphy Field,42.84280014,-76.44529724,1100,Auburn,06NY,
Saint Elizabeth Medical Center Heliport,41.1147995,-80.65699768,1020,Youngstown,06O1,
Hal Joy Airfield,41.50979996,-80.59120178,1160,Williamsfield,06OH,
Green Acres Airport,39.73479843,-84.38220215,915,New Lebanon,06OI,
Albert Lodge Heliport,36.54169846,-94.83360291,900,Grove,06OK,
Hayden Mountain Airport,45.46509933,-123.0800018,850,Forest Grove,06OR,
Freefall Oz Airport,42.00839996,-78.25810242,1440,Ceres,06PA,
Schiavoni Heliport,40.382733,-76.772533,727,Harrisburg,06PN,
Cherokee Island Castle Heliport,40.40230179,-79.9213028,760,West Homestead,06PS,
Grawunder Field,29.94190025,-96.24610138,289,Bellville,06R,
Beyer Farm Airport,37.58390045,-97.25309753,1340,Derby,06SN,
Glaser Field,30.90850067,-97.11689758,480,Buckholts,06TA,
Ainsworth Airport,30.31270027,-95.02690125,129,Cleveland,06TE,
Hunter STOLport,35.69729996,-86.95690155,640,Columbia,06TN,
Roscoe Mc Connico Airport,32.12070084,-96.17910004,350,Kerens,06TS,
Diamond N Ranch Airport,30.05760002,-95.81289673,215,Hockley,06TX,
Mount Horeb Field,38.24900055,-78.8553009,1160,Grottoes,06VA,
N A Degerstrom Yard Heliport,47.68629837,-117.197998,2013,Spokane,06WA,
Young Private Airport,45.66270065,-92.45020294,1075,Frederic,06WI,
Western Airpark,46.92499924,-122.5530014,394,Yelm,06WN,
Campbell Field,33.3246994,-97.04419708,546,Aubrey,06XS,
Herman Municipal Airport,45.83000183,-96.16059875,1068,Herman,06Y,
Tac X Stagefield Army Heliport,31.12520027,-85.97910309,132,Fort Rucker/Samson,07AL,
Morrilton Airport,35.19449997,-92.80020142,300,Morrilton,07AR,
John C Lincoln Hospital Heliport,33.56669998,-112.0690002,1255,Phoenix,07AZ,
Blue Hill Airport,44.44800186,-68.56970215,360,Blue Hill,07B,
West Side Hospital Heliport,35.13890076,-119.4509964,850,Taft,07CA,
Richvale Airport,39.49769974,-121.7710037,100,Richvale,07CL,
Comanche Creek Airport,39.2635994,-104.427002,6620,Kiowa,07CO,
Tnt Heliport,41.45289993,-72.24960327,430,Salem,07CT,
Tackaberry Airport,43.0644989,-82.72380066,764,Avoca,07D,
Ocean Reef Club Airport,25.3253994,-80.27480316,8,Key Largo,07FA,
Flying G Ranch STOLport,30.41799927,-83.28379822,90,Lee,07FD,
Southwest Florida Regional Medical Center Heliport,26.60540009,-81.85949707,18,Fort Myers,07FL,
Alcovy Airport,33.67499924,-83.76309967,750,Covington,07GA,
Lake Monroe Seaplane Base,39.05870056,-86.44609833,538,Bloomington,07I,
Interstate Airport,42.27819824,-113.3050003,4580,Malta,07ID,
St Vincent Jennings Hospital Heliport,39.01060104,-85.64080048,740,North Vernon,07II,
Gray Airport,39.57369995,-85.91390228,750,Boggstown,07IN,
Central City Municipal - Larry Reineke Field,41.11259842,-98.05169678,1717,Central City,07K,
Heape Field,37.73419952,-96.93669891,1321,Augusta,07KS,
Blue Lick Airport,38.08060074,-85.69329834,532,Louisville,07KY,
Air Oil Inc Nr 1 Heliport,29.93709946,-90.18370056,,Harahan,07LA,
LA State Police Troop F Heliport,32.51810074,-91.98899841,80,Monroe,07LS,
West Pond Heliport,41.91699982,-70.70950317,149,Plymouth,07MA,
Baugher's Orchard Airport,39.60829926,-77.05190277,700,Westminster,07MD,
Westbrook Heliport,43.73830032,-70.33920288,250,Westbrook,07ME,
Scott Airstrip,43.86420059,-85.02390289,1065,Lake,07MI,
Dairyview Airport,44.05500031,-95.90950012,1680,Hadley,07MN,
Lake Sexton Airport,38.65000153,-93.61689758,880,Warrensburg,07MO,
Glasgow Industrial Airport,48.42110062,-106.5279999,2762,Glasgow,07MT,
Bermudian Valley Airpark,40.01679993,-77.00389862,470,Kralltown,07N,
Hawks Meadow Airport,34.83319855,-80.75119781,625,Waxhaw,07NC,
Diving Rock Seaplane Base,43.17559814,-72.06390381,1404,Washington,07NH,
Palisades General Hospital Heliport,40.79180145,-73.99539948,10,North Bergen,07NJ,
Mmc Heliport,42.66640091,-74.76499939,1320,Monticello,07NY,
Tennessee Gas Heliport,39.93730164,-81.6835022,1025,Claysville,07OH,
Pleasant Valley Airport,34.63339996,-99.03369904,1322,Snyder,07OK,
Bruce's Airport,45.42179871,-122.6200027,250,Milwaukie,07OR,
Folmar Airport,40.998889,-78.125278,1690,Grassflat,07PN,
Churchill Airport,39.77280045,-99.36009979,1965,Phillipsburg,07SN,
Salaika Aviation Airport,29.2404995,-95.34470367,30,Danbury,07TA,
Cuddihy Field,27.72109985,-97.51280212,39,Corpus Christi,07TE,
Corntassel Airport,35.5685997,-84.2410965,970,Vonore,07TN,
Cross-Country Estates Airport,30.625,-97.57279968,690,Georgetown,07TS,
Pecks Heliport,33.18399811,-96.44799805,660,Princeton,07TX,
ATK/Thiokol Airport,41.7166667,-112.4472222,4480,Howell,07UT,
Alpha Hotel Airport,36.81959915,-78.78309631,350,Clover,07VA,
Meadow STOLport,44.44720078,-72.91470337,801,Jericho,07VT,
Deaconess Medical Center Heliport,47.65179825,-117.4250031,2110,Spokane,07WA,
Bartell Strip,42.96530151,-88.39150238,990,Genessee Depot,07WI,
Allen Ponderosa Heliport,32.54219818,-97.39170074,840,Crowley,07XS,
Hill City-Quadna Mountain Airport,46.95550156,-93.59690094,1289,Hill City,07Y,
Fisher Airport,61.569639,-149.724439,200,Big Lake,08AK,
Crittenden Regional Hospital Heliport,35.141944,-90.19,206,West Memphis,08AR,
Mesa Police Heliport,33.41740036,-111.836998,1240,Mesa,08AZ,
Merrymeeting Field,44,-69.88710022,65,Bowdoinham,08B,
Pg & E Co. Placerville Svc Center Heliport,38.69490051,-120.8270035,1810,Diamond Springs,08CA,
Kistler Ranch Airport,37.85960007,-120.5540009,1025,Jamestown,08CL,
Tulare Motor Sports #1 Heliport,36.172031,-119.306181,270,Tulare,08CN,
Terra Firma Airport,38.73249817,-104.0410004,5600,Rush,08CO,
Seavair's Landing Seaplane Base,41.89599991,-73.0931015,881,Winsted,08CT,
City of Coalgate Airport,34.53179932,-96.23310089,615,Coalgate,08F,
Duda Airstrip,26.57979965,-81.48370361,35,La Belle,08FA,
Sunniland Ranch Airport,27.36310005,-80.77279663,65,Okeechobee,08FD,
J. H. Hendrie Farms Airport,27.08449936,-81.3286972,103,Lake Placid,08FL,
Salt Fork Lodge Heliport,40.11090088,-81.52619934,960,Cambridge,08G,
Sapelo Island Airport,31.42580032,-81.2858963,12,Darien,08GA,
Symms Airport,43.56930161,-116.7770004,2680,Marsing,08ID,
Lagrange Hospital Heliport,41.64590073,-85.42639923,943,Lagrange,08II,
Harms Airstrip,41.57699966,-89.79399872,643,Tampico,08IL,
Winona Lake Seaplane Base,41.223056,-85.830556,812,Winona Lake,08IN,
Hemmer RLA Restricted Landing Area,37.97779846,-89.20290375,400,Du Quoin,08IS,
Alderson Airport,39.03469849,-97.58000183,1250,Bennington,08KS,
Boss Airport,36.97259903,-84.62609863,820,Burnside,08KY,
Air Oil Inc Nr 2 Heliport,29.95299911,-90.18260193,4,Harahan,08LA,
Sauer Airport,41.07529831,-88.48919678,665,Dwight,08LL,
Aeleron Airport,30.40360069,-92.02359772,51,Grand Coteau,08LS,
Wormid Airport,42.29399872,-71.49620056,360,Southborough,08MA,
St Joseph Hospital Heliport,39.38830185,-76.61000061,470,Towson,08MD,
Lindbergh Airport,44.81420135,-70.34529877,554,Avon,08ME,
Sparrow Hospital Heliport,42.73419952,-84.53659821,1019,Lansing,08MI,
Christenson Point Seaplane Base,47.66939926,-93.05439758,1372,Chisholm/Hibbing,08MN,
Twin Oaks Airport,37.39559937,-94.28379822,955,Jasper,08MO,
Williams Field,34.66220093,-89.86830139,345,Coldwater,08MS,
Clark Airport,47.06389999,-108.8170013,3450,Grassrange,08MT,
Keller Brothers Airport,40.29180145,-76.32879639,550,Lebanon,08N,
Whiteheart Farm Airport,36.06760025,-80.46559906,750,Lewisville,08NC,
Brecht Strip,47.32310104,-102.0979996,1990,Golden Valley,08ND,
Laurel Municipal Airport,42.43170166,-97.07949829,1467,Laurel,08NE,
Memorial Hospital Heliport,44.06129837,-71.13580322,574,North Conway,08NH,
St Barnabas Medical Center Heliport,40.76259995,-74.30400085,429,Livingston,08NJ,
Md1 Airport,41.36809921,-74.50559998,650,Middletown,08NY,
Kenley Airport,41.29169846,-80.56369781,1230,Hartford,08OH,
Parks Airport,34.93149948,-95.25830078,635,Wilburton,08OK,
Saxon Sycan Airport,42.83929825,-121.1169968,4990,Silver Lake,08OR,
Pocono Raceway Heliport,41.0583992,-75.49960327,1812,Pocono Pines,08PA,
Thomson Heliport,40.04589844,-76.28079987,310,Lancaster,08PN,
Richmond Airport,41.48949814,-71.62059784,130,West Kingston,08R,
Rancho Del Lago Heliport,29.95190048,-98.22450256,1208,Fischer,08TA,
B. J. Mc Combs Sisterdale Airport,29.97599983,-98.74359894,1447,Comfort,08TE,
Puesta Del Sol Airport,26.88780022,-98.50720215,420,La Gloria,08TS,
Cross Wind Airport,32.85820007,-97.74749756,1040,Weatherford,08TX,
Stevens-Crosby Airport,41.51570129,-115.8600006,6397,North Fork,08U,
Springwood Airstrip,37.55400085,-79.74980164,1000,Buchanan,08VA,
Manchester Laboratory Heliport,47.57429886,-122.5479965,2,Manchester,08WA,
Pierick Airport,43.04359818,-90.35510254,1225,Highland,08WI,
Peterson Airport,29.10810089,-95.77749634,45,Old Ocean,08XS,
West Beaver Airport,61.589361,-149.847333,228,Big Lake,09AK,
Magnolia Hospital Heliport,33.27320099,-93.23989868,310,Magnolia,09AR,
Stronghold Airport,31.9253006,-110.038002,4970,St David,09AZ,
Mee Memorial Hospital Heliport,36.20830154,-121.1320038,320,King City,09CA,
Alta Sierra Airport,39.11380005,-121.0569992,2275,Grass Valley,09CL,
Tulare Motor Sports #2 Heliport,36.182556,-119.313572,272,Tulare,09CN,
Cottonwood Field,38.05559921,-103.6529999,4180,Swink,09CO,
Placid Lakes Airport,27.24559975,-81.4131012,130,Lake Placid,09FA,
Cheryl-Lane Landings Airport,28.67110062,-82.08730316,71,Bushnell,09FD,
Sunnybreeze Airport,27.05559921,-81.97059631,60,Arcadia,09FL,
Sunbelt Strip,31.11129951,-83.68409729,230,Moultrie,09GA,
International Falls Seaplane Base,48.60580063,-93.3707962,1110,International Falls,09I,
Skydive Iowa Airport,41.74580002,-92.40930176,820,Brooklyn,09IA,
Taylor Ranch Landing Area Airport,45.10390091,-114.8550034,3835,Moscow,09ID,
Gibbons Field,38.44729996,-86.44499969,880,Valeene,09II,
Silver Cross Hospital Heliport,41.53639984,-88.05259705,610,Joliet,09IL,
Gordon Airport,41.1208992,-85.42500305,850,Columbia City,09IN,
Swedish American Heliport,42.26499939,-89.07430267,874,Rockford,09IS,
Coffman Airport,38.70700073,-95.13829803,970,Wellsville,09KS,
Baptist Hospital East Heliport,38.23899841,-85.63939667,531,Louisville,09KY,
Era Helicopters Fourchon Helibase Heliport,29.12330055,-90.2016983,2,Grand Isle,09LA,
Pine Hill Airport,42.4681015,-88.74320221,1000,Capron,09LL,
West Feliciana Sheriff's Office Heliport,30.82439995,-91.38459778,181,St Francisville,09LS,
Kallander Field,42.3042984,-71.50589752,403,Southborough,09MA,
Perrotti Skyranch Airfield,43.34080124,-70.85469818,260,Berwick,09ME,
Michigan National Guard Headquarters Heliport,42.70809937,-84.56079865,842,Lansing,09MI,
W Johnson Field,44.77999878,-95.66359711,1060,Hazel Run,09MN,
Hogue Farm Airport,37.3783989,-93.36329651,1210,Willard,09MO,
Airhaven Airport,41.83259964,-73.87599945,450,Staatsburg,09N,
William Irving Lewis Airport,35.32929993,-79.02999878,310,Broadway,09NC,
Summer Hill Farm Airport,41.33330154,-96.19360352,1250,Bennington,09NE,
Stonebridge Farm Helistop,40.65370178,-74.68650055,100,Somerville,09NJ,
Spring Lake Fire Department Heliport,41.92890167,-74.04889679,254,Kingston,09NY,
Ragtime Aerodrome,36.35449982,-95.86389923,700,Collinsville,09OK,
Mid-Columbia Medical Center Heliport,45.587235,-121.163827,487,The Dalles,09OR,
Eagle Field,40.82699966,-77.98809814,1780,Port Matilda,09PA,
Hundley Residence Heliport,40.56200027,-75.1427002,480,Kintersville,09PN,
Sullivan Lake State Airport,48.84090042,-117.2839966,2614,Metaline Falls,09S,
Lazy G Bar Ranch Airport,33.28210068,-97.49700165,923,Decatur,09TA,
Running M Ranch Airport,32.26679993,-97.86699677,787,Glen Rose,09TE,
Univ of Tennessee Medical Center Heliport,35.94169998,-83.94400024,924,Knoxville,09TN,
Pitcock Rosillos Mountain Ranch Airport,29.48240089,-103.1650009,3100,Marathon,09TS,
Smokey Mtn Ranch Airport,30.7390995,-102.0240021,2522,Sheffield,09TX,
Alum Ridge STOLport,36.97650146,-80.49389648,2375,Floyd,09VA,
Augusta Medical Center Heliport,38.09080124,-78.98500061,1390,Fishersville,09VG,
South Capitol Street Heliport,38.86869812,-77.00749969,10,Washington,09W,
Holy Family Hospital Heliport,47.71039963,-117.4069977,2081,Spokane,09WA,
Parkway Farm Strip,44.00360107,-91.30760193,705,Holmen,09WI,
Baptist Medical Center Heliport,29.43300056,-98.49220276,710,San Antonio,09XS,
Wipline Seaplane Base,44.8166008,-93.01550293,687,Inver Grove Hgts,09Y,
Pilot Station Airport,61.93460083,-162.8999939,305,Pilot Station,0AK,
Scotts Airport,64.39250183,-146.8619995,800,North Pole,0AK0,
Anderson Lake Airport,61.6169014,-149.3220062,463,Wasilla,0AK1,
Yentna Bend Strip,61.725556,-150.678611,81,Willow,0AK2,
Parker Lake Airport,62.03590012,-150.4940033,250,Montana Creek,0AK3,
Young Creek Airport,61.35649872,-142.7330017,1580,May Creek,0AK5,
Victory Airport,61.80339813,-147.9440002,1800,Victory Bible Camp,0AK6,
Bradley Lake Hydroelectri Project Airstrip,59.77610016,-150.9589996,18,Homer,0AK7,
Pollux Heliport,64.89579773,-147.496994,515,North Pole,0AK8,
Falcon Lake Strip,61.33259964,-150.0590057,110,Point Mackenzie,0AK9,
Huntsville Field,34.68840027,-86.58889771,619,Huntsville,0AL0,
Resort Airport,30.44389915,-87.6568985,97,Foley,0AL1,
Clay County Hospital Heliport,33.27500153,-85.83329773,1040,Ashland,0AL2,
Hospital Pad Heliport,31.43059921,-86.94029999,295,Evergreen,0AL3,
B.M.C. - De Kalb Heliport,34.44079971,-85.75640106,870,Fort Payne,0AL4,
Flomaton Airport,31.03219986,-87.25279999,247,Flomaton,0AL5,
D.W. Mcmillian Memorial Hospital Heliport,31.12719917,-87.07330322,155,Brewton,0AL6,
Gadsden Regl Medical Center Heliport,34.00830078,-85.96530151,621,Gadsden,0AL7,
Brookwood Medical Center Heliport,33.46390152,-86.77310181,763,Birmingham,0AL8,
Wilson Creek Airport,34.84999847,-87.63249969,590,Florence,0AL9,
Smh Heliport,36.18149948,-94.13710022,1352,Springdale,0AR0,
Hooterville South Airport,35.09469986,-93.20200348,370,Centerville,0AR1,
Mission Field-Marotti Memorial Airport,35.26679993,-90.35009766,217,Crawfordsville,0AR2,
Taylor's Air Strip,35.89899826,-93.26100159,2160,Deer,0AR3,
Gravette Medical Center Hospital Heliport,36.40790176,-94.45690155,1251,Gravette,0AR4,
Rgnl Medical Center Heliport,35.83620071,-90.70179749,382,Jonesboro,0AR5,
Ami National Park Medical Center Heliport,34.48149872,-93.03099823,547,Hot Springs,0AR6,
Yancopin Airport,33.95009995,-91.18119812,150,Watson,0AR7,
Howard Memorial Hospital Heliport,33.95009995,-93.85209656,549,Nashville,0AR8,
Eureka Springs Hospital Heliport,36.40010071,-93.74349976,1540,Eureka Springs,0AR9,
Arizona Heart Hospital Heliport,33.48130035,-112.0400009,1161,Phoenix,0AZ0,
Taylor Field,32.30089951,-111.3239975,2130,Marana,0AZ1,
Western Sky Airport,33.77809906,-113.6419983,1930,Salome,0AZ2,
Flying Bucket Ranch Airport,32.9822998,-112.2870026,1505,Mobile,0AZ4,
Castle Well Airport,33.86589813,-112.6029968,2080,Morristown,0AZ5,
St Joseph's Hospital Heliport,33.4817009,-112.0770035,1213,Phoenix,0AZ6,
Sunstate Heliport,33.44369888,-111.9629974,1180,Phoenix,0AZ7,
Brewer Airport,44.76369858,-68.76779938,124,Brewer,0B2,
Warren-Sugarbush Airport,44.11669922,-72.82710266,1470,Warren,0B7,
Triple R Airport,39.4878006,-94.78050232,1000,Dearborn,0C1,
Hinckley Airport,41.77090073,-88.70339966,760,Hinckley,0C2,
Canadian Lakes Airport,43.57640076,-85.2806015,960,Mecosta,0C5,
Grandpas' Farm Mendota Airport,41.52199936,-89.13259888,727,Mendota,0C7,
Cushing Field Ltd Airport,41.51950073,-88.60559845,640,Newark,0C8,
Coach & Paddock Heliport,40.63819885,-74.97570038,320,Clinton,0C9,
Drew Medical Center Heliport,33.9233017,-118.2419968,180,Los Angeles,0CA0,
Northside Airpark,34.98830032,-120.4580002,190,Santa Maria,,
Va Greater Los Angeles Health Care Center Heliport,34.04919815,-118.4560013,294,West Los Angeles,0CA2,
Crawford Airport,34.58750153,-120.0130005,570,Santa Ynez,0CA3,
Shepherd Ranch Airport,34.62220001,-120.0650024,660,Santa Ynez,0CA4,
Hoffman Private Airport,33.14310074,-116.7450027,3100,Santa Ysabel,0CA5,
Emory Ranch Airport,32.7494444,-116.0161111,480,Ocotillo,0CA6,
Boeing Seal Beach (Rooftop) Heliport,33.75699997,-118.0879974,158,Seal Beach,0CA7,
Ward Ranch Airport,33.42779922,-116.8430023,2500,Aguanga,0CA8,
Blech Ranch Airport,35.59500122,-120.3389969,1140,Shandon,0CA9,
Delta County Memorial Hospital Heliport,38.74079895,-108.052002,5000,Delta,0CD0,
Colorado Plains Medical Center Heliport,40.2610917,-103.7963389,4356,Fort Morgan,0CD1,
Foxx Valley Airport,38.65250015,-104.2340012,5800,Yoder,0CD2,
Branch's Heliport,40.34799957,-104.5279999,4635,Kersey,0CD3,
Kauffman Heliport,40.14630127,-104.887001,5120,Denver,0CD4,
Pinon Canyon Airport,37.4905014,-104.1439972,5686,Trinidad,0CD5,
Exempla Good Samaritan Heliport,39.97169876,-105.0849991,5204,Lafayette,0CD6,
Fox Hole Airport,40.00469971,-105.0719986,5135,Lafayette,0CD7,
Prowers Medical Center Heliport,38.07109833,-102.6090012,3575,Lamar,0CD8,
Swedish S.W. Medical Heliport,39.60309982,-105.0910034,5563,Littleton,0CD9,
Yosemite Hidden Lake Ranch Airport,37.11800003,-119.913002,500,Raymond,0CL0,
Krey Field Airport,34.56940079,-117.5559998,3042,Adelanto,0CL1,
Parking Lot Heliport,32.59389877,-117.0849991,,Chula Vista,0CL2,
John Nichol's Field Airport,32.6330986,-116.8929977,490,Chula Vista,0CL3,
Glen Fed Heliport,34.15719986,-118.2549973,770,Glendale,0CL4,
The Atrium Heliport,33.67060089,-117.8580017,46,Irvine,0CL5,
Bohunk's Airpark,34.69469833,-118.2829971,2410,Lancaster,0CL6,
Good Samaritan Hospital Heliport,34.05450058,-118.2649994,473,Los Angeles,0CL7,
Tera Ultralightport,35.59130096,-117.6340027,2510,Ridgecrest,0CL8,
Sce San Jacinto Valley Service Center Heliport,33.74110031,-117.151001,1482,Romoland,0CL9,
Longmont United Hospital Heliport,40.17890167,-105.1259995,5047,Longmont,0CO0,
Dave's Airport,40.03329849,-105.1240005,5170,Louisville,0CO1,
Buckhorn Ranch Airport,38.85189819,-106.93282,8980,Crested Butte,0CO2,CSE
Greggs Nr 1 Airport,39.88940048,-104.5449982,5373,Bennett,0CO3,
Geo-Seis Helicopters Heliport,40.58990097,-105.0459976,4935,Fort Collins,0CO4,
Chenoweth Airport,39.83330154,-103.5899963,4697,Last Chance,0CO5,
Flying M & M Ranch Airport,38.2193985,-108.2129974,8000,Norwood,0CO6,
Century Helicopters Heliport,40.58549881,-105.0400009,4935,Fort Collins,0CO7,
Cartwheel Airport,40.20830154,-105.0130005,5010,Mead,0CO8,
Van Treese Airport,37.65829849,-106.0339966,7613,Monte Vista,0CO9,
Sharon Hospital Heliport,41.88119888,-73.48100281,640,Sharon,0CT0,
Bristol-Myers Squibb Company Heliport,41.48479843,-72.7562027,350,Wallingford,0CT1,
Windham Hospital Heliport,41.71699905,-72.22589874,330,Willimantic,0CT2,
N B G H Heliport,41.66159821,-72.78790283,431,New Britain,0CT3,
Burke Heliport,41.50619888,-72.93979645,400,Prospect,0CT4,
St Francis Hospital Heliport,41.7745018,-72.6989975,184,Hartford,0CT5,
Middletown Heliport,41.59680176,-72.70449829,113,Middletown,0CT6,
Bridgeport Hospital Heliport,41.18840027,-73.16619873,80,Bridgeport,0CT7,
Danbury Hospital Heliport,41.4056015,-73.44470215,510,Danbury,0CT8,
Hartford Hospital Heliport,41.75450134,-72.67870331,211,Hartford,0CT9,
Wilber Municipal Airport,40.47499847,-96.9878006,1400,Wilber,0D6,
Ada Airport,40.79059982,-83.82910156,949,Ada,0D7,
Corydon Airport,40.75450134,-93.24130249,1020,Corydon,0.00E+00,
Doral Resort & Country Club Heliport,25.81290054,-80.33889771,6,Miami,0FA0,
Frierson Grove Airport,27.30389977,-81.88040161,65,Arcadia,0FA1,
Doctors Memorial Hospital #2 Heliport,30.119753,-83.592732,57,Perry,0FA2,
Big 'G' Airport,29.26749992,-81.23010254,40,Ormond Beach,0FD0,
Panhandle Helicopter Llc Heliport,30.21409988,-85.87220001,20,Panama City Beach,0FD1,
Dolphin Stadium Heliport,25.95999264,-80.2370026,8,Miami,0FD2,
Dugger Field,30.49640083,-86.09380341,70,Freeport,0FD3,
Cloverleaf Farms Ii Inc. Heliport,29.3614006,-82.20819855,100,Reddick,0FD4,
Breezy Knoll Airport,30.82019997,-86.3443985,235,Defuniak Springs,0FD5,
Fulton Seaplane Base,27.90749931,-80.48639679,,Sebastian,0FD6,
Joy Farms Airport,30.65209961,-86.10939789,290,Defuniak Springs,0FD9,
Harper's Fly-In Ranch Airport,26.73060036,-81.16390228,30,Clewiston,0FL0,
Thompson Airfield,29.98329926,-82.83560181,110,Branford,0FL1,
Alligator Drink Seaplane Base,28.78779984,-81.16419983,19,Geneva,0FL2,
Old Town Ems Heliport,29.60280037,-82.98169708,25,Old Town,0FL3,
Jackson Heliport,30.70499992,-85.37830353,110,Alford,0FL4,
Lake Conway South Seaplane Base,28.45859909,-81.34970093,80,Belle Isle,0FL5,
Stanchester Airport,27.80590057,-82.14009857,94,Lithia,0FL6,
Wcpx Tv-6 Heliport,28.61030006,-81.41940308,114,Orlando,0FL7,
Gary Gale Seaplane Base,30.19389915,-81.68190002,,Jacksonville,0FL8,
Mc Daniel Ranch Inc. Airport,26.39389992,-81.02310181,18,Clewiston,0FL9,
North Buffalo Suburban Airport,43.10319901,-78.70330048,588,Lockport,0G0,
Grand Marais/Cook County Seaplane Base,47.8263,-90.3835,1635,Grand Marais,0G5,
Halls Flying Ranch Airport,33.35620117,-84.36710358,800,Hampton,0GA0,
Mustang Field,34.47790146,-82.89710236,693,Hartwell,0GA1,
"Airnautique, Inc. Airport",34.37789917,-82.9457016,720,Hartwell,0GA2,
Ayresouth Airport,33.77009964,-85.06079865,1287,Temple,0GA3,
Paradise Falls Airport,33.81290054,-83.50569916,736,High Shoals,0GA4,
Big Canoe Heliport,34.45479965,-84.28910065,1475,Jasper,0GA5,
Sunset Strip,33.73339844,-83.81880188,780,Jersey,0GA6,
Hickory Level Airfield,33.6833992,-84.99990082,1080,Temple,0GA7,
Paso Fino Farm Airport,30.88710022,-83.41600037,200,Valdosta,0GA8,
Roberta Industrial Park Airport,32.71390152,-84.02749634,505,Roberta,0GA9,
Pinewood Airport,33.78210068,-84.80079651,1085,Douglasville,0GE0,
Crystal Lake Airpark,31.66550064,-83.44709778,327,Irwinville,0GE1,
Lookout Mountain Airport,34.90470123,-85.45970154,563,Trenton,0GE3,
Pecan Patch Airstrip,33.33140182,-84.26670074,860,Sunnyside,0GE4,
Mountain Airpark,34.5617981,-83.71350098,1438,Cleveland,0GE5,
Carpenter Airport,33.52030182,-82.37249756,450,Appling,0GE7,
Pegasus Ranch Airport,32.69390106,-81.79859924,230,Rocky Ford,0GE9,
Kahoka Municipal Airport,40.42160034,-91.70629883,700,Kahoka,0H7,
Brazil Clay County Airport,39.47669983,-87.09970093,645,Brazil,0I2,
Knoxville Area Community Hospital Heliport,41.31689835,-93.09600067,927,Knoxville,0IA0,
St Anthony Regional Hospital Heliport,42.05830002,-94.86830139,1300,Carroll,0IA1,
Audubon County Memorial Hospital Heliport,41.71549988,-94.93859863,1320,Audubon,0IA2,
Hawkeye Airport,42.43470001,-92.32800293,883,Waterloo,0IA3,
Sharar Field,41.03340149,-91.05010223,700,Mediapolis,0IA4,
Moore Private Airport,40.87220001,-93.26270294,1060,Millerton,0IA5,
Rinehart Airport,41.65969849,-92.28990173,920,Victor,0IA6,
Cromwell Heliport,41.03889847,-94.46690369,1300,Cromwell,0IA7,
Hannen Airport,42.22800064,-91.75099945,925,Center Point,0IA8,
Army Reserve Heliport,40.83340073,-91.30010223,725,Middleton,0IA9,
South Fork Ranch Airport,43.60639954,-115.1070023,4861,Featherville,0ID0,
Ziggy's Airport,42.64120102,-114.6050034,3225,Filer,0ID1,
Flying Joseph Ranch Airport,44.44290161,-113.7730026,5600,May,0ID2,
Coyote Run Airport,43.07580185,-115.6729965,3150,Mountain Home,0ID3,
Black Butte Ranch Airport,43.04769897,-114.4700012,4020,Shoshone,0ID4,
Ez Lope Ranch Airport,43.05310059,-116.461998,3130,Oreana,0ID5,
Steele Memorial Heliport,45.1739006,-113.8909988,4004,Salmon,0ID6,
Z X Ranch Airport,43.230308,-116.763192,3820,Murphy,0ID7,
Pinnacle Airport,45.775197,-116.178475,3800,Grangeville,0ID8,
Chuck's Airport,40.25999832,-85.25330353,955,Albany,0II0,
Unsicker Airport,40.42810059,-86.15329742,816,Bremen,0II1,
Creighton Airport,41.45729828,-86.12439728,820,Bremen,0II2,
Miller Strip,40.62779999,-86.03780365,810,Bunker Hill,0II3,
Marshall Field,40.65950012,-86.85720062,705,Chalmers,0II5,
Kropf Airport,41.64310074,-85.82969666,810,Goshen,0II6,
Frost Field,39.79560089,-85.78610229,900,Greenfield,0II7,
Sutton's Field,41.32479858,-87.47589874,740,Lowell,0II8,
Winters Airport,39.53419876,-86.57720184,755,Hall,0II9,
Hamilton Memorial Hospital Heliport,38.08670044,-88.53890228,440,Mc Leansboro,0IL0,
Loyola University Medical Center Heliport,41.86090088,-87.83640289,623,Broadview,0IL1,
Griffin Airport,38.803056,-88.997778,541,Alma,0IL2,
Flying B Ranch Airport,40.1570015,-87.67449951,696,Danville,0IL3,
Good Samaritan Hospital Heliport,41.81890106,-88.00779724,772,Downers Grove,0IL4,
Kishwaukee Community Hospital Heliport,41.96310043,-88.71730042,852,De Kalb,0IL6,
Walter Airport,41.87250137,-88.72370148,890,De Kalb,0IL8,
Jack W. Watson Airport,41.85480118,-88.78730011,880,De Kalb,0IL9,
Snider Field,38.5,-87.59590149,400,Decker,0IN1,
The Lazy K Airport,40.82780075,-85.08609772,835,Tocsin,0IN2,
Graves Landing Strip,41.11669922,-86.66670227,704,Winamac,0IN3,
Air Park Field,41.12779999,-84.94719696,750,Woodburn,0IN4,
Byrne Field,38.32899857,-86.03359985,800,Byrneville,0IN5,
Roto-Whirl/Holiday Heliport,39.92250061,-86.22609711,875,Indianapolis,0IN7,
Roto-Whirl/Vantage Heliport,39.83729935,-86.11859894,726,Indianapolis,0IN8,
Parrish Airport,37.99309921,-87.95140076,390,Mount Vernon,0IN9,
Trinity Medical Center West Heliport,41.48109818,-90.5714035,664,Rock Island,0IS0,
Evanston/Glenbrook Heliport,42.0931015,-87.8526001,678,Glenview,0IS2,
Cady Aerial RLA Restricted Landing Area,41.66080093,-89.69360352,630,Deer Grove,0IS3,
Dawson Farms Airport,39.76250076,-88.67150116,670,Lovington,0IS4,
Dongola Heliport,37.36560059,-89.16359711,383,Dongola,0IS6,
Blessing Hospital At 11th St Heliport,39.93640137,-91.39900208,650,Quincy,0IS8,
Bernardin Heliport,41.70840073,-89.20290375,830,West Brooklyn,0IS9,
Abbeville Municipal Airport,31.60020065,-85.23880005,468,Abbeville,0J0,
Flying Ten Airport,29.61800003,-82.50869751,85,Archer,0J8,
Dobie's Airport,36.15990067,-95.5802002,610,Inola,0K6,
J V Ranch Airport,38.63330078,-95.9253006,1180,Osage City,0KS0,
Kellie Mann Airfield,38.56000137,-95.30909729,1045,Ottawa,0KS2,
Camp Chippewa Airport,38.56669998,-95.36689758,1120,Ottawa,0KS3,
Norris Airport,38.807239,-95.370056,1065,Lawrence,0KS4,
Kendrigan Airport,37.45220184,-97.31780243,1240,Peck,0KS6,
Mono Aircraft Airport,37.69279861,-97.88639832,1450,Cheney,0KS7,
Pearce Field,37.38249969,-95.37470245,950,Parsons,0KS8,
Lmn 120 Airport,37.51589966,-96.9197998,1330,Douglas,0KS9,
Owen Air Park,38.62279892,-84.77890015,890,Owenton,0KY0,
Arnemann Farms Airport,36.7655983,-86.61830139,504,Franklin,0KY1,
Mgt Station 2105 Heliport,37.50559998,-86.83750153,540,Hartford,0KY2,
Tennessee Gas Heliport,38.56140137,-83.95279694,604,Load,0KY3,
Cambron Field,37.56439972,-87.08190155,427,Owensboro,0KY4,
Falin Landing Strip,36.8125,-86.375,600,Bowling Green,0KY5,
Tennessee Gas Heliport,38.2682991,-82.57749939,560,Burnaugh,0KY6,
Clinton-Hickman County Airport,36.63610077,-88.99859619,360,Clinton,0KY7,
Sky Airport,37.11719894,-83.73609924,850,Manchester,0KY8,
Pine Mountain Aero Heliport,37.11360168,-82.8035965,1300,Whitesburg,0KY9,
Lida Junction Airport,37.4858017,-117.1910019,4684,Goldfield,0L4,
Goldfield Airport,37.7179985,-117.237999,5680,Goldfield,0L5,
Winn Parish Medical Center Heliport,31.92320061,-92.64569855,140,Winnfield,0L6,
West Hackberry Heliport,30.00849915,-93.40019989,10,Hackberry,0LA0,
Double H Ranch Airport,30.22940063,-90.9733963,15,Gonzales,0LA1,
Don Babin-Private Airport,30.27799988,-90.96320343,17,Gonzales,0LA2,
Belcher Airpatch Airport,32.7492981,-93.87349701,280,Belcher,0LA3,
North Caddo Medical Center Heliport,32.86410141,-93.98899841,200,Vivian,0LA4,
Conoco Inc Heliport,29.25799942,-89.96369934,3,Grand Isle,0LA5,
Freeport Sulphur Heliport,29.25860023,-89.959198,3,Grand Isle,0LA6,
Exxon Heliport,29.25580025,-89.96759796,6,Grand Isle,0LA7,
Jackson Parish Hospital Heliport,32.25170135,-92.71279907,183,Jonesboro,0LA8,
Rebel Field,30.5862999,-90.8615036,74,Watson,0LA9,
Kaufield Airport,42.26470184,-88.73000336,783,Belvidere,0LL0,
Jerseyville Aviation Inc Airport,39.09420013,-90.31340027,604,Jerseyville,0LL1,
Murk's Strip,40.73889923,-90.38069916,700,St. Augustine,0LL2,
Koenig Airport,39.05500031,-90.34210205,614,Jerseyville,0LL3,
Flaherty Field,41.4192009,-89.12310028,664,La Salle,0LL4,
Busboom RLA Restricted Landing Area,40.11000061,-88.07839966,675,St Joseph,0LL5,
Gord Airport,41.69839859,-88.60759735,710,Sandwich,0LL6,
Hospital Heliport,41.65000153,-88.61669922,670,Sandwich,0LL7,
Savanna Army Depot Helipad,42.1833992,-90.25569916,650,Savanna,0LL9,
Theriot Field,29.74970055,-90.7358017,13,Thibodaux,0LS0,
Evergreen Fourchon Heliport,29.11639977,-90.20220184,6,Golden Meadow,0LS2,
Evergreen Venice Heliport,29.29669952,-89.37439728,,Venice,0LS3,
Buller's Airstrip,30.80870056,-92.18800354,47,Bunkie,0LS4,
Trahan Ultralightport,30.30690002,-92.12979889,40,Cankton,0LS5,
Dufour Airport,30.78770065,-92.05039978,42,Morrow,0LS6,
Morgan Field,30.6128006,-91.48419952,36,New Roads,0LS7,
Lonesome Dove Airfield,30.28580093,-92.94129944,34,Woodlawn,0LS8,
Huenefeld Airport,32.50429916,-91.98210144,72,Monroe,0LS9,
Massachusetts General Hospital Heliport,42.36370087,-71.06890106,214,Boston,0MA1,
Healthalliance Hospital-Leominster Heliport,42.54090118,-71.76280212,450,Leominster,0MA2,
Reh Heliport,41.78739929,-71.23179626,100,Rehoboth,0MA3,
Boston Medical Center Hospital Heliport,42.33359909,-71.07170105,19,Boston,0MA4,
Brockton Usar Center Heliport,42.05590057,-71.05590057,85,Brockton,0MA5,
Wbz Heliport,42.36510086,-71.13259888,9,Boston,0MA6,
Textron/Everett Heliport,42.40449905,-71.07060242,40,Everett,0MA8,
Lleia Kyle O'Meara Heliport,42.50310135,-71.90840149,1230,Westminster,0MA9,
Baltimore Washington Medical Center Heliport,39.13759995,-76.62329865,77,Glen Burnie,0MD0,
Taylor Field,39.18730164,-75.79270172,75,Sudlersville,0MD1,
Squier Landing Airport,38.28789902,-76.86750031,16,Cobb Island,0MD2,
The Johns Hopkins Hospital Heliport,39.29729843,-76.59329987,260,Baltimore,0MD3,
Pond View Private Airport,39.26679993,-76.18720245,47,Chestertown,0MD4,
Greater Laurel Beltsville Hospital Heliport,39.08760071,-76.88159943,285,Laurel,0MD5,
Walters Airport,39.38119888,-77.10579681,750,Mount Airy,0MD6,
The Aspen Institute Heliport,38.90930176,-76.11969757,20,Queenstown,0MD7,
Security Ford Heliport,39.2458992,-76.67610168,30,Arbutus,0MD8,
Calvert Memorial Hospital Heliport,38.56100082,-76.59660339,143,Prince Frederick,0MD9,
Peasley Field,44.742469,-68.474403,271,Otis,0ME4,
Sumner Heliport,42.97000122,-85.66590118,657,Grand Rapids,0MI0,
Sugar Springs Airport,44.14030075,-84.4375,940,Gladwin,0MI1,
Stier Airstrip,44.52220154,-83.6832962,850,Glennie,0MI2,
Kelleys Airport,44.63339996,-84.48339844,1000,Grayling,0MI3,
Lesterson Field,46.27019882,-87.3864975,1120,Gwinn,0MI4,
Young's Airport,46.38750076,-85.18399811,800,Hulbert,0MI6,
Four Star Heliport,42.04309845,-83.35939789,603,Carleton,0MI7,
Twin Lakes Airport,44.90000153,-84.30000305,1275,Lewiston,0MI8,
Henry Ford Hospital Heliport,42.36750031,-83.08439636,633,Detroit,0MI9,
Winner's Landing Seaplane Base,44.7969017,-92.98410034,690,St Paul Park,0MN0,
Brinkman Airport,44.26250076,-94.06970215,1020,St. Peter,0MN1,
Grindstone Lake Seaplane Base,46.13330078,-93.00299835,1025,Sandstone,0MN2,
Lower Hay Lake Seaplane Base,46.67779922,-94.29250336,1230,Jenkins,0MN3,
Paul's Seaplane Base,46.47719955,-94.30310059,1200,Nisswa,0MN4,
Pankratz Airport,44.30720139,-94.91690063,1033,Springfield,0MN5,
Matson Field,43.66220093,-92.40429688,1365,Spring Valley,0MN6,
Ely Bloomenson Community Hospital Heliport,47.89910126,-91.8730011,1450,Ely,0MN7,
Keller Airport,45.13579941,-92.85939789,990,Stillwater,0MN8,
Triple H Heliport,45.31330109,-93.71759796,980,Big Lake,0MN9,
Ferros Ranch-Aero Airport,38.41030121,-93.85019684,775,Clinton,0MO0,
Flying G Airport,38.54449844,-94.09470367,920,Creighton,0MO1,
Short-N-Ruff Airport,37.7867012,-90.78009796,950,Caledonia,0MO2,
Arvin Ranch Airport,38.44029999,-94.59329987,1000,Drexel,0MO3,
Bert Walter Berkowitz Heliport,39.08530045,-94.57379913,890,Kansas City,0MO4,
Joe D Lewis Airport,40.13339996,-92.10019684,780,Edina,0MO5,
Hall Airport,40.11669922,-92.26689911,850,Edina,0MO6,
St Joseph Hospital West Heliport,38.80329895,-90.77629852,531,Lake Saint Louis,0MO7,
Sloan's Airport,39.1405983,-90.73680115,437,Elsberry,0MO8,
Emerson Heliport,38.72949982,-90.27839661,575,Ferguson,0MO9,
Topton Air Estates Airport,32.47499847,-88.61669922,453,Meridian,0MS0,
Franklin Field,31.42519951,-90.9029007,200,Meadville,0MS1,
Morgan Field,31.54179955,-89.39170074,300,Seminary,0MS2,
Baptist Memorial Hospital-North Ms Heliport,34.34780121,-89.51899719,430,Oxford,0MS3,
Sheriff's Courthouse Heliport,30.37599945,-89.0861969,50,Gulfport,0MS4,
Lewis Air Service Airport,33.39179993,-90.91680145,120,Leland,0MS5,
Levert Heliport,30.30130005,-89.23449707,25,Pass Christian,0MS6,
Hale Field,34.34260178,-89.14309692,346,Pontotoc,0MS7,
Catfish Point Airport,33.69929886,-91.1651001,154,Benoit,0MS8,
Shenandoah Valley Farms Airport,33.80070114,-89.02729797,300,Houston,0MS9,
Williams Field,47.49750137,-112.3909988,4070,Augusta,0MT1,
Big Sandy Medical Center Heliport,48.17969894,-110.1090012,2750,Big Sandy,0MT2,
Stock Farm Heliport,46.25080109,-114.0670013,3920,Hamilton,0MT3,
Kimp Airport,46.27859879,-114.1409988,3510,Hamilton,0MT4,
Cottonwood Airport,45.63420105,-108.848999,3350,Laurel,0MT5,
Hanson Airport,48.04059982,-114.6790009,3900,Marion,0MT6,
Pinehurst Ranch Airport,47.66080093,-115.4039993,2460,Thompson Falls,0MT7,
Glacier Heli Tours Heliport,48.48669815,-113.9980011,3300,West Glacier,0MT8,
Lone Hawk Airport,48.48329926,-114.4929962,3284,White Fish,0MT9,
Eagle Field,37.23469925,-91.09359741,784,Ellington,0MU0,
Sunderland Airport,37.24670029,-94.17389679,1027,Avilla,0MU1,
Christian Hospital Northeast Heliport,38.7745018,-90.23899841,520,Florissant,0MU2,
Hannibal Regional Hospital Heliport,39.71120071,-91.45069885,744,Hannibal,0MU3,
Slaughter Airport,39.61610031,-92.86689758,800,Marceline,0MU4,
Holden Heliport,38.71969986,-93.99440002,865,Holden,0MU5,
Bradbury-Rolf Memorial Heliport,39.07329941,-93.73590088,815,Higginsville,0MU6,
Lambs Field,38.875,-94.13970184,1070,Lone Jack,0MU7,
Prince STOLport,37.43870163,-89.75900269,582,Millersville,0MU8,
Kenyon Heliport,44.33390045,-92.94329834,1500,Kenyon,0MY0,
Bozeman Deaconess Hospital Heliport,45.66999817,-111.0189972,4925,Bozeman,0MY1,
Roosterville Airport,39.29109955,-94.44219971,1004,Liberty,0N0,
Chandelle Estates Airport,39.20230103,-75.48549652,22,Dover,0N4,
Deldot Helistop,39.14960098,-75.50489807,30,Dover,0N5,
Henderson Aviation Airport,39.01259995,-75.53350067,50,Felton,0N6,
Goerger Airport,46.24549866,-97.03759766,1045,Barney,0NA1,
Sorlie Airport,48.00109863,-99.56289673,1580,Maddock,0NA5,
Boyd's Turf Airport,46.75,-103.8010025,2750,Golva,0NA9,
Wayne Memorial Hospital Inc. Heliport,35.3987999,-77.9496994,106,Goldsboro,0NC0,
Bearwallow Farm Airport,35.45709991,-82.37539673,3608,Hendersonville,0NC1,
Moore Regional Hospital Heliport,35.20489883,-79.45670319,460,Pinehurst,0NC2,
Washington County Hospital Heliport,35.87519836,-76.6996994,19,Plymouth,0NC3,
Wake Medical Center Heliport,35.78680038,-78.58580017,245,Raleigh,0NC4,
Nash General Hospital Heliport,35.91889954,-77.78919983,156,Rocky Mount,0NC5,
Our Community Hospital Heliport,36.13130188,-77.41889954,113,Scotland Neck,0NC6,
Lindsay Airport,36.35720062,-79.99749756,700,Madison,0NC7,
Double Creek Ranch Airport,35.75569916,-80.73529816,830,Cleveland,0NC8,
Maria Parham Hospital Heliport,36.33069992,-78.4496994,465,Henderson,0NC9,
Gilbertson Field,47.92919922,-99.40039825,1550,Flora,0ND0,
Schumacher Strip,46.05500031,-99.917099,2020,Hague,0ND6,
Saville Private Airport,46.46530151,-100.1050034,1961,Hazelton,0ND7,
Merrihew Airport,41.84999847,-101.9499969,3815,Ashby,0NE0,
Runner Landing Area Airport,42.40719986,-101.9319992,3760,Ashby,0NE1,
Merry Airport,41.86660004,-101.9169998,3791,Ashby,0NE2,
Syracuse Hospital Heliport,40.66719818,-96.18640137,1120,Syracuse,0NE3,
Franklin County Memorial Hospital Heliport,40.09719849,-98.95040131,1950,Franklin,0NE4,
Newman Airport,41.02109909,-102.0179977,3525,Big Springs,0NE5,
Frager Field,40.43330002,-98.07060242,1765,Fairfield,0NE6,
Atlantic City Medical Center Heliport,39.35897025,-74.4346717,82,Atlantic City,0NJ0,
Berkeley Township Police Heliport,39.90729904,-74.23490143,54,Bayville,0NJ1,
Ballymere Heliport,40.75289917,-74.43990326,280,Morristown,0NJ2,
Mount Holly Heliport,39.96680069,-74.79959869,45,Mount Holly,0NJ3,
Weichert Headquarters Heliport,40.94070053,-74.46150208,103,Morris Plains,0NJ4,
Fla-Net Airport,40.88589859,-74.70570374,1040,Netcong,0NJ5,
Dix Field,39.31679916,-74.63289642,8,Linwood,0NJ6,
Essex Generating Station Heliport,40.7378006,-74.11889648,8,Newark,0NJ7,
Port Newark Helistop,40.70230103,-74.15070343,10,Newark,0NJ8,
Jersey Tpke New Brunswick Helistop,40.47729874,-74.40789795,70,New Brunswick,0NJ9,
Berdick Field,42.33399963,-78.79090118,1690,Cattaraugus,0NK0,
Spring Brook Airport,43.36169815,-76.22019958,450,Central Square,0NK1,
Westwind Farm Airport,42.98339844,-74.0161972,800,Charlton,0NK2,
Seven Gullies Airport,42.69589996,-77.79219818,600,Groveland,0NK3,
Medical Center Heliport,40.72589874,-73.55370331,80,Hempstead,0NK4,
Mid-Hudson Helicopter Service Heliport,41.60620117,-73.82759857,270,Hopewell Junction,0NK5,
Lapeer Flyer Airport,42.43840027,-76.08879852,1280,Marathon,0NK6,
Ibm King St Heliport,41.10250092,-73.72609711,470,Armonk,0NK7,
Rocky Reef Farm Airport,41.92089844,-73.67040253,450,Attlebury,0NK8,
Lakeview Airport,43.01029968,-75.82689667,1050,Chittenango,0NK9,
Columbus Municipal Airport,31.82369995,-107.6269989,4024,Columbus,0NM0,
Negrito Airstrip,33.52090073,-108.5429993,8143,Reserve,0NM7,
Summerlin Medical Center Heliport,36.1935997,-115.3010025,2745,Las Vegas,0NV1,
Bennetts Airport,43.70009995,-73.98290253,1040,North Creek,0NY0,
Russell Field,43.1391983,-73.65319824,260,Northumberland,0NY1,
Kermizian Airport,43.31399918,-74.93209839,1440,Ohio,0NY3,
State Police Troop D Heliport,43.09420013,-75.64959717,507,Oneida,0NY5,
New York State Police Heliport,42.92839813,-76.6155014,600,Auburn,0NY6,
Murphys Landing Strip,43.03760147,-74.18430328,940,Perth,0NY7,
Wenskoski Field,42.99729919,-74.24539948,800,Perth,0NY8,
San Luis Reservoir Seaplane Base,37.05830002,-121.1259995,544,Los Banos,0O0,
Corning Municipal Airport,39.9435997,-122.1709976,292,Corning,0O4,
Ward Field,41.84569931,-123.9850006,356,Gasquet,0O9,
Cirino Heliport,41.44390106,-81.32759857,1250,Chagrin Falls,0OH1,
Jenkins Field,39.97060013,-83.91159821,1080,North Hampton,0OH2,
Hamilton County Sheriff's Patrol Heliport,39.27920151,-84.56469727,865,Forest Park,0OH3,
Fry Field,39.6006012,-84.0196991,775,Spring Valley,0OH6,
Apple Airport,40.1432991,-84.17189789,1000,Piqua,0OH7,
Fry Airport,40.18840027,-84.25610352,900,Piqua,0OH8,
Parknavy STOLport,40.07170105,-83.22989655,943,Plain City,0OH9,
Foltz Heliport,40.73590088,-81.24680328,1012,East Canton,0OI0,
Autolite Heliport,41.17919922,-83.41519928,759,Fostoria,0OI1,
Unger Field,39.35979843,-83.41770172,940,Greenfield,0OI2,
Galloway Airport,41.38209915,-82.7161026,643,Sandusky,0OI3,
Salt Box Airport,41.32426453,-81.15930939,1250,Hiram,0OI4,
Victor's Landing Airport,41.83810043,-80.64369965,860,Kingsville,0OI6,
Hidden Quarry Airport,38.89450073,-83.1135025,830,Lucasville,0OI9,
Edmond Airport,35.6833992,-97.43360138,1169,Edmond,0OK0,
Mckey Airport,34.6570015,-97.40170288,1056,Elmore City,0OK1,
Parkview Hospital Heliport,35.52980042,-97.98390198,1349,El Reno,0OK2,
Mckinley Ranch Airport,35.61949921,-98.52259827,1420,Geary,0OK3,
Rock Creek Farm Airport,34.66059875,-96.25360107,730,Coal Gate,0OK4,
Chappell Airport,35.88890076,-97.40029907,1070,Guthrie,0OK5,
Ellis/Harvey Airport,35.80170059,-97.38610077,1220,Guthrie,0OK6,
Shattuck Hospital Heliport,36.25,-99.87539673,2200,Shattuck,0OK7,
Cade's Airport,36.29249954,-97.5931015,1140,Covington,0OK8,
Crystal Airport,36.21340179,-96.63700104,1016,Jennings,0OK9,
Providence Hospital Heliport,42.33869934,-122.8619995,1350,Medford,0OR0,
Hendershots Heliport,42.1332016,-123.4509964,1200,Merlin,0OR2,
Long Ranch Airport,42.01900101,-121.7040024,4090,Merrill,0OR3,
Round Butte Heliport,44.61650085,-121.2679977,2125,Metolius,0OR4,
East Oregon Cattle Co Airport,42.50350189,-122.8550034,1345,Eagle Point,0OR5,
Rome Service Airport,42.83399963,-117.6289978,3387,Rome,0OR6,
Marr Field,44.85400009,-123.2639999,275,Monmouth,0OR7,
Sutton on Rogue Airport,42.48479843,-122.8659973,1260,White City,0OR8,
Hanel Field,45.59260178,-121.5490036,1626,Mount Hood,0OR9,
Valley Forge Bicentennial Heliport,40.12120056,-75.40599823,260,Norristown,0P0,
Van Pak Airport,39.8321991,-99.5687027,2213,Prairie View,0P1,
Shoestring Aviation Airfield,39.7947998,-76.64720154,1000,Stewartstown,0P2,
Philadelphia Gliderport,40.32839966,-75.24130249,670,Hilltown,0PA0,
Phoenix Technologies Heliport,40.11819839,-75.40129852,252,Norristown,0PA1,
Haunstein Ultralightport,40.31679916,-77.12470245,600,Shermans Dale,0PA2,
Robbins Farm Airport,41.74950027,-76.7602005,1207,Troy,0PA3,
Ecko Field,40.23759842,-76.72470093,380,Hummelstown,0PA4,
Fisher Airport,41.49449921,-79.8309021,1500,Franklin,0PA5,
Hostetler Airport,40.63090134,-77.85030365,760,Huntingdon,0PA6,
Linvill Airport,39.88479996,-75.41490173,180,Media,0PA7,
Community Medical Center Nap Heliport,41.40000153,-75.63529968,508,Scranton,0PA8,
Carson Heliport,40.33340073,-75.21630096,415,Perkasie,0PA9,
Fletcher Airport,41.4435997,-80.15390015,1335,Sheakeyville,0PN0,
Pete's Water Landing Seaplane Base,40.69940186,-79.61889648,757,Freeport,0PN1,
Flying Acres Airport,41.07310104,-80.07029724,1247,Slippery Rock,0PN2,
Wyeth-Ayerst Nr Heliport,40.15869904,-75.46340179,186,Collegeville,0PN3,
Kitner Airport,40.41289902,-77.24140167,960,New Bloomfield,0PN4,
Nichols Airport,41.77920151,-79.5983963,1761,Spartansburg,0PN5,
Memmi Airport,40.16899872,-77.99250031,1138,Three Springs,0PN6,
Drillmore Acres Airport,40.12829971,-77.63140106,680,Newburg,0PN7,
Shriver Airport,41.61669922,-79.68309784,1560,Titusville,0PN8,
Paul Personal Use Airport,41.7195015,-79.67780304,1645,Titusville,0PN9,
Frederick Airpark,41.3708992,-79.34169769,1560,Tylersburg,0PS0,
Mc Crory Stores Heliport,39.98149872,-76.67140198,420,York,0PS1,
Marian Heliport,40.98949814,-75.751297,1285,Weatherly,0PS2,
Carsonville Airport,40.49039841,-76.76660156,800,Carsonville,0PS3,
Old Orchard Airport,41.00839996,-78.56089783,1980,Curwensville,0PS4,
Used Parts Heliport,40.87929916,-75.19270325,660,East Bangor,0PS5,
Herbst Heliport,39.94950104,-76.55329895,485,East Prospect,0PS6,
Harman Airport,40.52230072,-76.84549713,720,Elizabethville,0PS7,
Bayfront Garage Heliport,42.13259888,-80.0861969,1130,Erie,0PS8,
Delaware Valley Medical Center Heliport,40.18289948,-74.86789703,141,Fairless Hills,0PS9,
Sonoma Valley Airport,38.2234993,-122.4499969,10,Schellville/Sonoma,0Q3,
Selma Airport,36.58160019,-119.6579971,305,Selma,0Q4,
Shingletown Airport,40.52209854,-121.8180008,3880,Shingletown,0Q6,
Sonoma Skypark Airport,38.25770187,-122.4339981,20,Sonoma,0Q9,
Lincoln Municipal Airport,38.40390015,-93.33300018,940,Lincoln,0R2,
The Red River Airport,31.99069977,-93.30740356,177,Coushatta,0R7,
Plainville Airpark,39.19449997,-99.30339813,2182,Plainville,0R9,
Meadow Creek Usfs Airport,47.84579849,-113.4089966,3984,Meadow Creek,0S1,
Stockton Municipal Airport,39.37720108,-99.29509735,1973,Stockton,0S2,
Nez Perce Municipal Airport,46.23740005,-116.2429962,3201,Nez Perce,0S5,
Lenling Airport,45.42499924,-100.8919983,2142,Glencross,0SD0,
Lodi Airport,42.97219849,-96.98020172,1200,Wakonda,0SD1,
Prairie Lakes West Heliport,44.91109848,-97.11949921,1799,Watertown,0SD2,
Bledsoe Ranch Airport,45.26940155,-103.2170029,2872,Hoover,0SD3,
Brookview Manor Heliport,44.30810165,-96.76470184,1670,Brookings,0SD4,
The Fort Heliport,43.8064003,-103.637001,5800,Custer,0SD5,
Oasis Ranch Airport,44.28889847,-101.8259964,2580,Philip,0SD6,
Porch Ranch Airport,43.5243988,-101.7340012,2775,Wanblee,0SD7,
Juhnke Airport,43.78279877,-100.2929993,1900,Vivian,0SD8,
Crazy Horse Heliport,43.82500076,-103.6360016,5900,Custer,0SD9,
Twin City Airpark,37.31389999,-89.99729919,421,Marble Hill,0T3,
Kittyhawk Airport,33.12620163,-96.68360138,700,Allen,0T7,
Mainland Regional Health Care System Heliport,29.3932991,-94.98519897,16,Lamarque/Texas City,0TA0,
Buddy Harmel Airport,34.2195015,-101.9800034,3552,Halfway,0TA1,
Smith Farms Airport,34.21670151,-101.9250031,3487,Halfway,0TA2,
Tate Ranch Airport,30.30430031,-102.1380005,2650,Dryden,0TA3,
Erco Field,32.4978981,-96.27050018,395,Kaufman,0TA4,
Metro Heli-Pad Heliport,29.61470032,-95.35489655,57,Houston,0TA5,
Arco Ingleside Shorebase Heliport,27.8477993,-97.22299957,20,Ingleside,0TA6,
Alta Vista Ranch Airport,30.14819908,-103.8929977,4702,Marfa,0TA7,
Womack Plantation Airport,33.84870148,-95.40720367,410,Paris,0TA8,
Houston Oil & Minerals Port Bolivar Nr 2 Heliport,29.39109993,-94.76409912,8,Port Bolivar,0TA9,
Robertson Ranch Airport,29.69300079,-101.1620026,1663,Comstock,0TE0,
Christus Spohn Hospital Memorial Heliport,27.77980042,-97.41419983,38,Corpus Christi,0TE1,
Bell Helicopter Hurst Heliport,32.80009842,-97.16699982,524,Hurst,0TE2,
Buzz Field,33.92919922,-100.8420029,2614,Roaring Springs,0TE3,
Hilltop Lakes Airport,31.08099937,-96.21520233,501,Hilltop Lakes,0TE4,
Santa Maria Ranch Airport,27.43379974,-99.18589783,516,Laredo,0TE5,
Gorman Airport,32.20429993,-98.66560364,1452,Gorman,0TE6,
LBJ Ranch Airport,30.25180054,-98.62249756,1515,Johnson City,0TE7,JCY
Texas World Speedway Helistop Nr 1 Heliport,30.54050064,-96.22250366,270,College Station,0TE8,
Texas World Speedway Helistop Nr 2 Heliport,30.53960037,-96.22609711,270,College Station,0TE9,
R & S Buzzard Airport,35.67670059,-86.896698,810,Spring Hill,0TN0,
Tims Ford Seaplane Base,35.22230148,-86.22000122,785,Tullahoma,0TN1,
Village Airport,35.65589905,-84.1855011,920,Greenback,0TN2,
Park West Heliport,35.91759872,-84.10019684,1000,Knoxville,0TN3,
St Mary's Medical Center Heliport,35.99169922,-83.92769623,790,Knoxville,0TN4,
Mc Donald Airport,35.86740112,-86.49780273,600,Murfreesboro,0TN5,
Riner Farm Airport,36.1833992,-84.09909821,1125,Norris,0TN6,
Horne Properties Heliport,35.92359924,-84.0911026,975,Knoxville,0TN7,
Erlanger Medical Center Heliport,35.04919815,-85.29049683,745,Chattanooga,0TN8,
East Tennessee Children's Hospital Heliport,35.95619965,-83.9382019,1003,Knoxville,0TN9,
Flower Mound Airport,33.02289963,-97.12249756,625,Flower Mound,0TS0,
Dooley Airport,33.09870148,-97.27249908,650,Justin,0TS1,
Ultralight International Ultralightport,32.94869995,-97.3289032,820,Haslet,0TS2,
Houston Heliport,29.81739998,-95.66329956,100,Houston,0TS3,
Ullrich Airport,30.09189987,-96.79499817,410,Ledbetter,0TS4,
Lake Bay Gall Airport,30.44190025,-95.18630219,230,Cleveland,0TS5,
Harris County Courthouse Heliport,29.71610069,-95.47689819,105,Houston,0TS6,
Flying U Airport,32.83349991,-98.12529755,978,Mineral Wells,0TS7,
Flying 'K' Ranch Ultralightport,26.15040016,-97.88359833,81,Mercedes,0TS8,
Jim Roach Field,30.01549911,-97.73719788,600,Niederwald,0TS9,
Dynasty Heliport,14.96329975,145.6419983,150,"San Jose, Tinian",0TT8,
Nassau Bay Airport,32.41960144,-97.71279907,714,Granbury,0TX0,
Pecan Plantation Airport,32.35400009,-97.67639923,710,Granbury,0TX1,
Heliport-Facility 5a Heliport,32.76259995,-97.05860138,546,Grand Prairie,0TX2,
Panola General Hospital Heliport,32.16630173,-94.34600067,296,Carthage,0TX3,
Aerospatiale Helicopter Corp Heliport,32.71170044,-97.02719879,535,Grand Prairie,0TX4,
Shiloh Airport,33.02399826,-97.11969757,635,Flower Mound,0TX5,
Elm Creek Airpark,29.50519943,-97.99690247,550,Seguin,0TX6,
Lazy K Acres Airport,32.95009995,-97.15029907,700,Grapevine,0TX7,
Jacobia Field,33.18040085,-96.04329681,570,Greenville,0TX8,
Card Aerodrome,33.25009918,-96.11689758,540,Greenville,0TX9,
Landmark US Forest Service Airport,44.64239883,-115.5329971,6662,Landmark,0U0,
Warm Springs Creek Airport,44.14210129,-115.314003,4831,Lowman,0U1,
Copper Basin Airport,43.80179977,-113.8310013,7920,Mackay,0U2,
Mahoney Creek US Forest Service Airport,44.74459839,-114.9209976,4618,Mahoney Creek,0U3,
Hollow Top Airport,43.32490158,-113.5879974,5359,Martin,0U7,
May Airport,44.61019897,-113.8960037,5324,May,0U8,
Lee Williams Memorial Airport,44.46160126,-116.7580032,2617,Midvale,0U9,
Mostly Harmless Heliport,37.9654007,-77.77749634,330,Bumpass,0VA0,
Johnson Fox Field,37.23350143,-79.58529663,900,Bedford,0VA1,
Riverwood Airport,37.79650116,-79.76670074,1020,Iron Gate,0VA2,
Hunt Airport,37.69879913,-77.09529877,150,Manquin,0VA3,
Worley Field,36.95009995,-79.87950134,1219,Rocky Mount,0VA4,
Coffman Field,37.69414437,-77.66089439,280,Richmond,0VA5,
Mc Guire Va Medical Center Pad Heliport,37.49599838,-77.46219635,178,Richmond,0VA6,
Flatrock Air Strip,37.52320099,-77.81939697,425,Richmond,0VA7,
Jayarz Airport,37.28580093,-77.79119873,210,Mannboro,0VA8,
Handy Strip,37.44739914,-76.45379639,8,Gloucester Court House,0VA9,
Brooklyn Airport,37.68889999,-77.10140228,145,Manquin,0VI1,
Seattle Seaplanes Seaplane Base,47.62760162,-122.3320007,14,Seattle,0W0,
Floathaven Seaplane Base,48.72819901,-122.3359985,307,Bellingham,0W7,
Streamline Heliport,47.98289871,-122.038002,116,Machias,0WA0,
Dwight Field,46.61709976,-122.8259964,350,Chehalis,0WA1,
Curtis Airport,46.5904007,-123.1050034,254,Curtis,0WA2,
Air Columbia Heliport,45.68259811,-121.9000015,149,Stevenson,0WA3,
Hansen Heliport,47.43619919,-120.2799988,1250,East Wenatchee,0WA4,
Ware Mountain Heliport,48.37929916,-122.288002,750,Mount Vernon,0WA5,
Stevens Memorial Hospital Heliport,47.80369949,-122.3339996,370,Edmonds,0WA6,
Shamrock Port Heliport,47.77690125,-117.0839996,2172,Newman Lake,0WA7,
Childrens Hospital Emergency Heliport,47.66400146,-122.2809982,125,Seattle,0WA8,
Naval Station Everett Heliport,47.9864606,-122.2242951,5,Everett,0WA9,
Aurora St Luke's Medical Center Heliport,42.98889923,-87.95149994,761,Milwaukee,0WI0,
Mort's Landing Airport,45.50719833,-92.14189911,1255,Comstock,0WI1,
Doering Farms Airfield,43.20140076,-88.33339691,910,Monches,0WI2,
Aurora Lakeland Medical Center Heliport,42.6617012,-88.49680328,1040,Elkhorn,0WI3,
Snow Crest Ranch Airport,43.82939911,-89.3526001,810,Montello,0WI4,
Crash In International Airport,42.79339981,-87.89060211,755,Husher,0WI5,
Simandl Field/Private Airport,42.87360001,-88.15789795,805,Muskego,0WI6,
With Wings And A Halo Airport,44.13359833,-88.4992981,760,Neenah,0WI7,
Oconomowoc Airport,43.13890076,-88.47229767,885,Oconomowoc,0WI8,
Mc Manus Hoonch-Na-Shee-Kaw Airport,42.9314003,-89.33869934,931,Oregon,0WI9,
Rucilla's Roost Airport,48.13729858,-123.112999,15,Sequim,0WN0,
Shangri-La Airport,46.75189972,-120.6019974,1500,Selah,0WN1,
Coopers Landing,46.127778,-119.015,435,Kennewick,0WN2,
Olympia Heliport,46.9640007,-122.8919983,200,Olympia,0WN4,
Potts Field,42.79970169,-88.04869843,815,North Cape,0WN5,
L-Z Blue Thunder Heliport,48.95339966,-122.8180008,75,Blaine,0WN6,
Enumclaw Community Hospital Heliport,47.20650101,-121.9810028,700,Enumclaw,0WN7,
Sheldon Heliport,47.25109863,-116.8519974,2129,Coeur D'Alene,0WN8,
Wings For Christ Airport,48.430464,-119.486058,1000,Omak,0WN9,
Freedom Air Ranch Airport,43.039722,-111.038056,5698,Freedom,0WY0,
Dorsey Creek Ranch Airport,44.411111,-108.163333,4017,Basin,0WY1,
Parkland Hospital Nr 2 Heliport,32.81140137,-96.83879852,548,Dallas,0XA0,
Fort Duncan Medical Center Heliport,28.71209908,-100.4570007,884,Eagle Pass,0XA2,
Midstream Freeport Heliport,28.97170067,-95.28309631,6,Freeport,0XA3,
Seven C's Ranch Airport,27.99690056,-98.88220215,331,Freer,0XA4,
74 Ranch Airport,28.68490028,-98.38279724,320,Campbellton,0XA5,
Jaxon Landing Heliport,33.45000076,-101.939003,3270,Lubbock,0XA6,
Bar 3 Ranch Airport,30.66270065,-97.62509918,744,Georgetown,0XA7,
Ohho Airport,30.27000046,-98.10829926,1340,Dripping Springs,0XA8,
Methodist Mansfield Medical Center Heliport,32.56779861,-97.09529877,633,Mansfield,0XA9,
Diamond H Ranch Airport,28.40029907,-99.55870056,511,Catarina,0XS0,
Rodgers Roost Airport,29.28779984,-96.34970093,129,El Campo,0XS1,
John Fields Ranch Airport,30.55489922,-100.5339966,2342,Sonora,0XS2,
South Texas Project Heliport,28.79220009,-96.04190063,32,Palacios,0XS3,
Eds Heliport,33.09170151,-96.68609619,602,Allen,0XS4,
Southeastern Helicopters Heliport,26.14699936,-97.17389679,5,South Padre Island,0XS5,
Lakeside Beach Airport,30.50099945,-98.14700317,800,Spicewood,0XS6,
Anacacho Ranch Airport,29.19190025,-100.2750015,1067,Spofford,0XS7,
Dunbar Ranch Airport,29.0760994,-100.375,958,Spofford,0XS8,
French Field,32.134042,-95.339583,540,Bullard,0XS9,
Lambert Fechter Municipal Airport,43.16419983,-95.47000122,1452,Hartley,0Y4,
Lake Mills Municipal Airport,43.41659927,-93.50849915,1260,Lake Mills,0Y6,
Road Commission Nr 1 Airport,63.10820007,-147.5319977,2525,Denali,0Z2,
Shannons Pond Seaplane Base,59.05899811,-158.5769958,80,Dillingham,0Z3,
Hunt Strip,61.59189987,-149.6779938,200,Wasilla,10AK,
North Jackson Hospital Heliport,34.91400146,-85.77089691,650,Bridgeport,10AL,
Huntsville Memorial Hospital Heliport,36.09400177,-93.74240112,1495,Huntsville,10AR,
Pierce Airport,33.36640167,-112.6179962,860,Buckeye,10AZ,
William E Poole Heliport,34.602252,-117.172451,3120,Apple Valley,10CA,
Joe Gottlieb Field,35.36800003,-119.1949997,347,Bakersfield,10CL,
Silkman Farms Inc. Airport,39.45470047,-102.2129974,4000,Burlington,10CO,
Winsted Municipal Airport,44.95000076,-94.06690216,1030,Winsted,10D,
Rosser Ranch Airport,33.01539993,-98.62529755,1112,Graham,10F,
Flying Baron Estates Airport,28.79750061,-81.93589783,75,Leesburg,10FA,
Seven Feathers Airport,29.00659943,-82.40460205,68,Dunnellon,10FD,
Fishermen's Hospital Emergency Helistop,24.71039963,-81.09449768,5,Marathon,10FL,
Beaverbrook Aerodrome,33.32509995,-84.2983017,910,Griffin,10GA,
Flyers Airport,42.41669846,-92.25019836,830,Waterloo,10IA,
Flat Top Airstrip,43.49440002,-113.9219971,5841,Muldoon,10ID,
Jasper County Hospital Heliport,40.93450165,-87.13860321,660,Rensselaer,10II,
Riverside Medical Center Heliport,41.12360001,-87.88529968,620,Kankakee,10IL,
Squires Airport,39.71839905,-85.04889679,1000,Connersville,10IN,
University of Kansas Hospital Heliport,39.056277,-94.608892,958,Kansas City,10KS,
Southwest Government Center Heliport,38.14839935,-85.8368988,480,Louisville,10KY,
Industrial Helicopters Inc. Airport,30.24740028,-92.09600067,35,Scott,10LA,
G & J Fly A Way Ultralightport,30.04630089,-91.99459839,20,Youngsville,10LS,
Beaver Lake Seaplane Base,42.26259995,-72.30699921,384,Ware,10MA,
St Mary's Hospital Heliport,43.42589951,-83.93859863,595,Saginaw,10MI,
Lookout Lake Seaplane Base,46.4375,-93.95610046,1200,Ironton,10MN,
Eckerts Airstrip,38.91450119,-91.70429993,839,Williamsburg,10MO,
Daniel Emergency Response Team Heliport,30.53030014,-88.55889893,20,Moss Point,10MS,
Hoolie Airport,47.83330154,-106.4840012,2526,Haxby,10MT,
Freeman Neosha Hospital Heliport,36.86780167,-94.36889648,1110,Neosho,10MU,
Johnston Farm Airport,36.3431015,-77.50939941,60,Jackson,10NC,
Smith Strip,47.1875,-102.3619995,2200,Halliday,10ND,
St Joseph Hospital Heliport,41.2655983,-95.95449829,1130,Omaha,10NE,
Clark Heliport,42.87409973,-71.17970276,320,Hampstead,10NH,
St Francis M C Helistop,40.21839905,-74.73880005,55,Trenton,10NJ,
Beaver Meadow Heliport,43.36899948,-75.1595993,1195,Remsen,10NY,
Zoellner Airport,41.40280151,-82.62909698,617,Huron,10OH,
Hickory Hills Airport,35.16669846,-97.21700287,1175,Norman,10OK,
Stevens Mountain Airport,45.78929901,-123.2320023,1000,Vernonia,10OR,
Piac Heliport,39.86259842,-75.3105011,8,Essington,10PA,
One Meridian Plaza Heliport,39.93069839,-75.24410248,560,Philadelphia,10PN,
Bear Creek Heliport,29.79220009,-95.63490295,100,Houston,10TA,
Gottwald Field,29.66690063,-97.50029755,440,Harwood,10TE,
Flatwood Field,36.07189941,-86.35440063,600,Lebanon,10TN,
Saint's Strip Ultralightport,29.55249977,-98.10310364,980,Marion,10TS,
Jbh Aerospace Heliport,27.84469986,-97.22389984,15,Ingleside,10TX,
Gilbert Development Corp Heliport,37.172778,-113.434444,3300,Hurricane,10UT,
Nashs Airport,37.38629913,-78.81310272,785,Appomattox,10VA,
Mullan Hill Airport,47.55459976,-117.413002,2310,Spokane,10WA,
Buds Landing Airport,45.11579895,-88.1894989,850,Pound,10WI,
Willow Creek Ranch Airport,43.423333,-106.823611,5521,Kaycee,10WY,
Flying S Air Ranch Airport,31.77949905,-98.90930176,1447,Brownwood,10XS,
Rocking T. Ranch Airport,63.99959946,-145.5019989,1190,Delta Junction,11AK,
Ech Stagefield Army Heliport,31.39369965,-85.75150299,268,Fort Rucker/Ozark,11AL,
St. Joseph's Mercy Heliport,34.46777778,-93.06527778,558,Hot Springs,11AR,
Whetstone Airport,31.68370056,-110.2900009,4250,Huachuca City,11AZ,
Turner Field,36.6733017,-119.7220001,300,Fowler,11CA,
Hansen Airport,34.63000107,-117.6529999,2885,Adelanto,11CL,
Channel 7 Heliport,39.72529984,-104.9840012,5300,Denver,11CO,
B & L Farms Airport,25.58370018,-80.49980164,9,Homestead,11FA,
North Okaloosa Medical Center Heliport,30.73570061,-86.56269836,230,Crestview,11FD,
Williams Field,30.04299927,-81.88089752,88,Middleburg,11FL,
Johnson Field,42.92110062,-82.58550262,630,Smiths Creek,11G,
De Kalb General Hospital Heliport,33.78969955,-84.28220367,1012,Decatur,11GA,
Apple 1 Heliport,34.26029968,-84.06639862,1273,Cumming,11GE,
Riddle Airport,42.1855011,-116.112999,5356,Riddle,11ID,
Atterbury Field (Camp Atterbury),39.34170151,-86.03050232,710,Nineveh,11II,
St Mary's Hospital - Kankakee Heliport,41.12200165,-87.87229919,610,Kankakee,11IL,
Jr's Airport,39.81890106,-86.5381012,950,Danville,11IN,
St Anthony Memorial Hospital Heliport,39.125,-88.55059814,593,Effingham,11IS,
Sheller's Airport,39.11669922,-95.14890289,1090,Tonganoxie,11KS,
Southwest Hospital Heliport,38.11589813,-85.83609772,500,Louisville,11KY,
Tiger Pass Seaplane Base,29.25880051,-89.35299683,,Venice,11LA,
Thacker Airport,40.72309875,-88.76309967,720,Chenoa,11LL,
Jasmine Hill Airport,30.97599983,-92.56900024,120,Glenmora,11LS,
Fulton-Itawamba County Airport,34.35200119,-88.37729645,450,Fulton,11M,
Bulljump Airport,41.80730057,-70.75839996,60,Wareham,11MA,
Tim's Airport,38.43330002,-75.62779999,42,Salisbury,11MD,
Wagner's Landing Heliport,42.73839951,-83.43740082,975,Clarkston,11MI,
Sixberry's Landing Seaplane Base,47.67770004,-93.04820251,1372,Chisholm,11MN,
Redgate Ranch Airport,38.90169907,-91.6352005,820,Williamsburg,11MO,
Candlelight Farms Airport,41.56679916,-73.46620178,675,New Milford,11N,
Sprint/Midatlantic Telecom Heliport,36.02149963,-78.51889801,427,Youngsville,11NC,
Kaan Airport,42.44250107,-103.9160004,4650,Harrison,11NE,
Southdown Heliport,40.64070129,-74.66419983,128,Pluckemin,11NJ,
Hop House Airpark,42.91389847,-74.61170197,530,Fort Plain,11NK,
Saikkonen Airport,42.20899963,-76.4496994,969,Spencer,11NY,
Hide-A-Way Hills Resort Airport,39.64310074,-82.46679688,780,Bremen,11OA,
Unity Airport,44.45130157,-118.1869965,3975,Unity,11OG,
Fayette County Memorial Hospital Heliport,39.5477528,-83.4279139,977,Washington Court House,11OH,
Beefor Ranch Airport,35.07229996,-97.38359833,1150,Purcell,11OK,
Holiday Sky Ranch Airport,43.39350128,-123.2850037,510,Sutherlin,11OR,
Sherrie John Manor Heliport,40.26259995,-77.04579926,400,Mechanicsburg,11PA,
Eakin Airport,41.3525,-79.732778,1489,Cranberry,11PN,
Sekiu Airport,48.26610184,-124.314003,355,Sekiu,11S,
Conoco Heliport,29.7894001,-95.61109924,91,Houston,11TA,
Flying M Ranch Airport,32.30009842,-97.20449829,700,Grandview,11TE,
Salem Field,36.47499847,-87.36669922,425,Clarksville,11TN,
Pt Enterprise D&W Ranch Airport,31.65789986,-96.41139984,526,Mexia,11TS,
Butler Airport,33.66680145,-96.69059753,840,Sherman,11TX,
Chesapeake General Hospital Heliport,36.7417984,-76.24410248,21,Chesapeake,11VA,
Devil's Reach Landing Airport,38.20940018,-77.00060272,28,Oak Grove,11VG,
Homeport Airport,47.5237999,-117.4700012,2320,Spokane,11WA,
Victory Memorial Hospital Heliport,44.9632988,-90.93379974,1140,Stanley,11WI,
Diedrich Seaplane Base,43.35419846,-89.57119751,774,Lodi,11WN,
Flying Feathers Airport,44.061183,-88.194933,940,Chilton,11Y,
Arkavalley Airport,35.17839813,-92.33540344,329,Conway,12A,
Goldberg Stagefield Army Heliport,31.41399956,-85.45980072,362,Fort Rucker/Kirklands Crossroads,12AL,
Gibbons Airport,34.515444,-90.973722,178,Marvell,12AR,
Ranta Strip,33.85390091,-112.6529999,1840,Morristown,12AZ,
Faber Vineyards Airport,38.10960007,-121.1689987,70,Lodi,12CA,
Newton Field,36.1568985,-119.8499985,194,Stratford,12CL,
Omega 1 STOLport,38.83549881,-107.8150024,6409,Hotchkiss,12CO,
Hi-Acres Airport,28.47859955,-81.71450043,105,Clermont,12FA,
Osceola Regional Hospital Heliport,28.29859924,-81.4108963,59,Kissimmee,12FD,
Timberlachen Seaplane Base,28.59280014,-81.40390015,89,Orlando,12FL,
Gwinnett Community Hospital D/B/A Eastside Medical Center Heliport,33.875,-84.02059937,1065,Snellville,12GA,
Harvest Lake Seaplane Base,31.73080063,-81.35970306,4,Riceboro,12GE,
Brookville Reservoir Seaplane Base,39.51029968,-85,748,Brookville,12I,
Plueger Airfield,42.80049896,-96.13780212,1245,Lemars,12IA,
Flying B Ranch Landing Strip,44.9679985,-114.7330017,3647,Salmon,12ID,
Pentecost Airport,39.85620117,-84.97219849,1020,Centerville,12II,
Hawker Airport,41.20000076,-88.01670074,620,Kankakee,12IL,
J & S Field,38.11859894,-87.64749908,465,Darmstadt,12IN,
Mercer County Hospital Heliport,41.20589828,-90.75990295,729,Aledo,12IS,
Clinton Elks Lodge Balloonport,40.60419846,-74.92079926,37,Pittstown,12JY,
Sooter Airport,37.93529892,-97.4878006,1420,Sedgwick,12KS,
John M. Foree Airport,38.46030045,-85.16860199,853,New Castle,12KY,
Kml Airport,30.27589989,-93.35739899,20,Sulphur,12LA,
Lambdins Field,37.54029846,-89.48619843,350,Wolf Lake,12LL,
Hains Airstrip,30.17860031,-92.28500366,20,Rayne,12LS,
Mellen Street Heliport,42.20709991,-71.44270325,275,Holliston,12MA,
St. Agnes Health Care Heliport,39.27080154,-76.67310333,141,Baltimore,12MD,
Ridgeview Airport,44.32229996,-69.20729828,240,Searsmont,12ME,
John's Airport,43.05170059,-83.49189758,820,Davison,12MI,
Eastman Seaplane Base,46.48049927,-94.28109741,1200,Lake Hubert,12MN,
Ferguson Farms Airport,38.58060074,-93.59470367,990,Windsor,12MO,
Green Acres Airport,31.09309959,-91.31900024,300,Woodville,12MS,
Lincolns Field,48.77420044,-110.4420013,2931,Hingham,12MT,
Atlantic Field Mcolf Airport,34.88330078,-76.34999847,20,Atlantic,12NC,
Pietschtree Airstrip,48.29529953,-101.427002,1566,Burlington,12ND,
Reisig Brothers Airport,41.90660095,-103.6999969,3985,Scottsbluff,12NE,
Gile Pond Airport,43.495278,-71.654444,485,Sanbornton,12NH,
Penske 2 Heliport,40.88399887,-74.0684967,62,Lodi,12NJ,
Westport Airport,44.15840149,-73.43289948,276,Westport,12NK,
Columbus Stockyards Airport,31.79179955,-107.6380005,4017,Columbus,12NM,
Tgp-245 Heliport,42.87340164,-75.17099762,1440,West Winfield,12NY,
Defiance Regional Medical Center Heliport,41.298,-84.377667,709,Defiance,12OA,
Mcgregor Airfield,39.83480072,-84.33470154,940,Brookville,12OH,
Expressway Airpark,35.54130173,-97.45310211,1070,Oklahoma City,12OK,
Skinner Ranch Airport,42.95130157,-117.2819977,4273,Jordan Valley,12OR,
Helicopter Applicators Inc Heliport,39.8495,-77.184167,612,Gettysburg,12PA,
Wcau Heliport,40.00730133,-75.21549988,230,Philadelphia,12PN,
Villamil-304 Ponce De Leon Heliport,18.42259979,-66.05699921,148,San Juan,12PR,
Siple Heliport,39.72380066,-75.88140106,419,Lewisville,12PS,
Monument Municipal Airport,44.83179855,-119.4300003,2323,Monument,12S,
Over the Hill Airport,34.14139938,-80.74669647,250,Elgin,12SC,
Ferris Red Oak Municipal Heliport,32.52920151,-96.72789764,510,Ferris/Red Oak,12T,
Channel Two Heliport,29.69020081,-95.52770233,72,Houston,12TA,
Curtis Ranch Field,31.31679916,-99.23370361,1740,Brady,12TE,
Riley Creek Airport,35.82369995,-84.5388031,750,Kingston,12TN,
Blo Airport,32.90850067,-97.97730255,1050,Mineral Wells,12TS,
Griffin Airport,30.82139969,-98.08059692,1235,Bertram,12TX,
Hop-Along Airport,37.7881012,-79.76779938,1060,Clifton Forge,12VA,
Fowlers Nw 40 Airport,47.52069855,-117.4629974,2313,Spokane,12WA,
Memorial Hospital of Taylor County Heliport,45.13589859,-90.35630035,1435,Medford,12WI,
Walker Airport,46.911,-117.218667,2450,Palouse,12WT,
Black Diamond Airport,44.45,-108.384667,4400,Burlington,12WY,
Mc Croskey Field,34.95470047,-91.83719635,253,Butlerville,12XS,
Satterbergs Airport,61.65470123,-149.8999939,350,Houston,13AK,
Hatch Stagefield Army Heliport,31.35899925,-85.62049866,225,Fort Rucker/Ozark,13AL,
Jrmc Heliport,34.18759918,-92.01789856,227,Pine Bluff,13AR,
Waltenberry Field Ultralightport,33.535,-112.8534722,1213,Tonopah,13AZ,
M H 15 Heaps Peak US Forest Service Heliport,34.23529816,-117.1549988,6266,Lake Arrowhead,13CA,
Maine Prairie Airport,38.38130188,-121.8239975,40,Dixon,13CL,
Mann Heliport,40.55559921,-106.8440018,7500,Steamboat Springs,13CO,
Ponderosa Heliport,42.62912003,-83.68306518,1017,Highland,13D,
Earle Airpark,29.69440079,-81.51370239,25,Hastings,13FA,
Yelvington Heliport,28.51860046,-81.38310242,110,Orlando,13FD,
Gator Lake Heliport,28.27669907,-82.32060242,110,Zephyrhills,13FL,
Oak Ridge Plantation Airport,31.36660004,-83.75489807,350,Sylvester,13GA,
Holt Airpark,32.3608017,-82.31809998,280,Oak Park,13GE,
Hillside Stables Airport,42.04570007,-90.19110107,760,Sabula,13IA,
Silva Ranch Airport,44.26660156,-115.0009995,6400,Stanley,13ID,
St Joseph Medical Center Heliport,41.07870102,-85.14969635,845,Fort Wayne,13II,
Gage Airport,40.81529999,-84.92769623,814,Decatur,13IN,
Hess Port Reading Heliport,40.64440155,-74.24530029,70,Port Reading,13JY,
Daniel's Landing Airport,37.69779968,-97.11029816,1325,Andover,13KS,
Miles Airport,37.70560074,-87.15609741,407,Owensboro,13KY,
Evergreen Heliport,29.78359985,-93.20850372,10,Cameron,13LA,
Henry Valve Company Heliport,41.90888904,-87.87408248,640,Melrose Park,13LL,
Tee Brad's Airport,29.9939003,-92.38559723,12,Kaplan,13LS,
Aeronut Park Balloonport,42.60419846,-83.8585968,980,Howell,13M,
Metropolitan Airport,42.22330093,-72.31140137,418,Palmer,13MA,PMX
Socatean Bay Airport,45.77640152,-69.80930328,1179,Rockwood,13ME,
Lee Memorial Hospital Heliport,41.9836998,-86.11579895,748,Dowagiac,13MI,
Melby Airport,46.10079956,-95.83139801,1250,Ashby,13MN,
Domeyer Airport,37.67639923,-91.70649719,1260,Lenox,13MO,
Greener Pastures Airpark,30.63330078,-89.66390228,180,Carriere,13MS,
Sorenson Airport,48.52080154,-110.112999,2873,Kremlin,13MT,
Trinca Airport,40.96680069,-74.78019714,600,Andover,13N,
Oak Grove Mcolf Airport,35.03350067,-77.24970245,27,Pollocksville,13NC,
Hock Airport,40.31669998,-100.8089981,2777,Culbertson,13NE,
Wyeth-Ayerst Research Heliport,40.36510086,-74.582901,117,Princeton,13NJ,
Quaker Valley Farm Heliport,41.59749985,-73.53150177,1100,Pawling,13NK,
Beaverhead Airstrip,33.41949844,-108.1389999,7378,Silver City,13NM,
Health Sciences Center University Hospital Heliport,40.9076004,-73.11620331,190,Stony Brook,13NY,
Rose Field,41.33029938,-84.2983017,728,Jewell,13OH,
Union Hospital Heliport,40.51509857,-81.45480347,926,Dover,13OI,
Mc Alester Regional Hospital Heliport,34.93619919,-95.74890137,705,Mc Alester,13OK,
Aubrey Mountain Airstrip,43.74069977,-122.4260025,1680,Oakridge,13OR,
Rigrtona Airport,41.68259811,-79.45200348,1703,Tidioute,13PA,
Richland Acres Ultralightport,40.45429993,-75.30460358,550,Quakertown,13PN,
St. Luke's/Pennstar Flight Center Heliport,40.73920059,-75.33390045,488,Nazareth,13PS,
Jewett Mesa Airport,34.0033989,-108.6780014,7681,Apache Creek,13Q,
Lake Louise Seaplane Base,62.28290176,-146.5189972,2362,Lake Louise,13S,
Grassy Pond Heliport,35.1391983,-81.6964035,840,Gaffney,13SC,
Kbmt-Tv Heliport,30.07329941,-94.13379669,32,Beaumont,13TA,
Varisco Airport,30.65600014,-96.53829956,240,Bryan,13TE,
Bear Mountain Heliport,35.59830093,-84.26750183,930,Vonore,13TN,
Van Es Ranch Airport,27.45529938,-98.92639923,830,Oilton,13TS,
Allison Ranch Airport,30.53129959,-100.4509964,2350,Sonora,13TX,
7th Division State Police Headquarters Heliport,38.82509995,-77.28410339,395,Fairfax,13VA,
May Heliport,37.30789948,-80.10009766,1430,Salem,13VG,
Camano Island Airfield,48.25699997,-122.4369965,145,Stanwood,13W,
Fsa - Everett Heliport,47.93650055,-122.25,500,Everett,13WA,
Nowatzski Field,43.69639969,-88.99960327,920,Markesan,13WI,
Presbyterian Hospital Of Rockwall Heliport,32.884444,-96.464444,532,Rockwall,13XS,
Littlefork Muni/Hanover Airport,48.41659927,-93.58630371,1145,Littlefork,13Y,
Loring Seaplane Base,55.60129929,-131.6369934,0,Loring,13Z,WLR
Four Corners Airport,61.60150146,-149.2480011,300,Palmer,14AK,
Highbluff Stagefield Army Heliport,31.1534996,-85.73370361,270,Fort Rucker/Hartford,14AL,
Rice-Bell Field Airport,35.05279922,-90.67500305,221,Forrest City,14AR,
Ruby Star Airpark,31.9083004,-111.1220016,4025,Green Valley,14AZ,
Hoag Memorial Hospital Heliport,33.62419891,-117.9300003,94,Newport Beach,14CA,
Foothill Presbyterian Hospital Heliport,34.13330078,-117.8690033,730,Glendora,14CL,
Good Pasture Airport,38.09719849,-104.9100037,6000,Beulah,14CO,
Mptn Heliport,41.48469925,-71.97290039,124,Mashantucket,14CT,
Burrs Strip,25.57010078,-80.39980316,10,Miami,14FA,
Sunshine Farms Airport,29.94910049,-81.49040222,23,St Augustine,14FD,
Wells Flying Service Airport,30.8654995,-87.17769623,240,Jay,14FL,
Latham Creek Heliport,34.33649826,-83.9434967,1120,Gainesville,14GA,
Stakely Heliport,34.78549957,-85.4536972,1940,Trenton,14GE,
Bloom Airport,39.63339996,-83.74990082,1050,Jamestown,14I,
Peaceful Cove Airport,43.68099976,-116.2030029,2920,Boise,14ID,
Kewanee Hospital Heliport,41.23529816,-89.93090057,838,Kewanee,,
De Motte Airport,41.20700073,-87.21250153,655,De Motte,14IN,
Marshall Browning Hospital Heliport,38.02560043,-89.23590088,454,Du Quoin,14IS,
G & S Space Port Airport,38.26919937,-94.90480042,940,Parker,14KS,
Blue Haven Farm Airport,38.17369843,-84.36830139,985,Paris,14KY,
Devonshire Area Heliport,34.25690079,-118.5309982,1012,Los Angeles,14L,
Killarny Farm Airport,30.8409996,-91.5082016,53,St Francisville,14LA,
Gottlieb Heliport,41.91138164,-87.84361929,688,Melrose Park,14LL,
Go Gulf Heliport,30.47330093,-91.04769897,50,Baton Rouge,14LS,
Vergnani Heliport,42.04980087,-72.64929962,180,Agawam,14MA,
Ring Hill Airport,44.79259872,-69.07029724,340,Carmel,14ME,
East-West Paris Airport,42.85089874,-85.56700134,750,Dutton,14MI,
Riverwood Healthcare Center Heliport,46.52920151,-93.69920349,1224,Aitkin,14MN,
Stevinson Farm Airport,39.04999924,-94.31690216,900,Blue Springs,14MO,
Rose Field,32.34529877,-89.03420258,400,Hickory,14MS,
Holland Ranch Airport,47.05160141,-109.0749969,4050,Lewistown,14MT,
Beltzville Airport,40.84429932,-75.63549805,899,Lehighton,14N,
Camp Davis Mcolf Airport,34.51670074,-77.55000305,60,Holly Ridge,14NC,
Hagen Private Airport,46.20780182,-102.9079971,2810,Reeder,14ND,
Aaron's Field,40.86249924,-98.06420135,1825,Aurora,14NE,
Cheshire Medical Center Heliport,42.94889832,-72.28970337,481,Keene,14NH,
Wuerkers New Acres Farm Heliport,39.00924694,-74.88795161,22,Rio Grande,14NJ,
Mountain View Airport,43.34000015,-73.47899628,243,Kingsbury,14NK,
Windy's Heliport,40.7975502,-73.41790009,222,Melville,14NY,
Heilman Airport,40.66889954,-83.4434967,930,Kenton,14OH,
Pleasant Home Gliding Club Gliderport,40.9192009,-82.11399841,1050,Pleasant Home,14OI,
Reherman Airport,35.80419922,-97.93370056,1105,Kingfisher,14OK,
Air Columbia Heliport,45.71419907,-121.5179977,100,Hoodriver,14OR,
Boggs Field,38.82389832,-81.34940338,927,Spencer,14P,
Dimascio Field,40.29090118,-75.65910339,350,Pottstown,14PA,
Hideaway Ultralightport,39.88439941,-76.11859894,630,Quarryville,14PS,
Westport Airport,46.89690018,-124.1009979,14,Westport,14S,
Colmery-O'Neil Vamc Heliport,39.02640152,-95.72250366,950,Topeka,14SN,
Dean Ranch Airport,29.89859962,-98.40309906,1180,Startzville,14TA,
Smith I-Ranch Airport,30.91679955,-99.48370361,1793,Hext,14TE,
News Channel 3 Heliport,35.12639999,-90.0714035,300,Memphis,14TN,
O S Wyatt Airport,27.42169952,-98.60449982,532,Realitos,14TS,
Keyes Ranch Airport,30.2894001,-98.17389679,1150,Dripping Springs,14TX,
Krens Farm Airport,39.22900009,-77.74669647,790,Hillsboro,14VA,
Lz Ranch Airport,46.97069931,-122.7369995,240,Olympia,14WA,
Cylon Heliport,45.136944,-92.376667,1071,New Richmond,14WI,
Lakewood Lodge Airport,45.77799988,-91.5585022,1365,Stone Lake,14WS,
Snowshoe Resort/Topof the World Heliport,38.40060043,-79.9957962,4792,Linwood,14WV,
Sherman (Frog Pond) Airport,33.6578884,-96.78828478,686,Sherman,14XA,
Isbell Ranch Airport,30.80850029,-97.27390289,430,Davilla,14XS,
Mark Reynolds/North Mobile County Airport,30.91320038,-87.98059845,60,Creola,15A,
Golden North Airfield,63.37070084,-148.8500061,2250,Cantwell,15AK,
Highfalls Stagefield Army Heliport,31.09359932,-85.78790283,220,Fort Rucker/Hartford,15AL,
Dawson's Airport,34.82590103,-90.54329681,220,Brickeys,15AR,
Quail Mesa Ranch Airport,33.74449921,-114.4769974,290,Quartzsite,15AZ,
Stanford University Hospital Center Heliport,37.4355011,-122.1750031,84,Palo Alto,15CA,
Hunt Farms Airport,37.34270096,-120.4039993,223,Merced,15CL,
Swedish Medical Center Heliport,39.65470123,-104.9710007,5374,Englewood,15CO,
Orange Hill Airport,30.65850067,-85.5298996,260,Wausau,15FD,
Cannon Creek Airpark,30.15369987,-82.66639709,125,Lake City,15FL,
Weltzien Skypark Airport,41.02840042,-81.79850006,1210,Wadsworth,15G,
Darla's Airport,32.68019867,-82.47899628,328,Kite,15GA,
